SALE TYPE,SOLD DATE,PROPERTY TYPE,ADDRESS,CITY,STATE OR PROVINCE,ZIP OR POSTAL CODE,PRICE,BEDS,BATHS,LOCATION,SQUARE FEET,LOT SIZE,YEAR BUILT,DAYS ON MARKET,$/SQUARE FEET,HOA/MONTH,STATUS,NEXT OPEN HOUSE START TIME,NEXT OPEN HOUSE END TIME,URL (SEE https://www.redfin.com/buy-a-home/comparative-market-analysis FOR INFO ON PRICING),SOURCE,MLS#,FAVORITE,INTERESTED,LATITUDE,LONGITUDE
MLS Listing,,Condo/Co-op,1200 I St #213,Anchorage,AK,99501,349000,2,2.0,Anchorage Municipality,1055,1072,1982,1,331,583,Active,,,https://www.redfin.com/AK/Anchorage/1200-I-St-99501/unit-213/home/131088943,AKMLS,22-68,N,Y,61.2099453,-149.9007438
MLS Listing,,Condo/Co-op,8698 Dry Creek Loop Unit 61A,Anchorage,AK,99502,429900,3,3.0,Anchorage Municipality,1751,,2021,1,246,296,Active,,,https://www.redfin.com/AK/Anchorage/8698-Dry-Creek-Loop-99502/unit-61A/home/177807329,AKMLS,22-64,N,Y,61.1413044,-149.9870308
MLS Listing,,Condo/Co-op,8694 Dry Creek Loop Unit 61B,Anchorage,AK,99502,429900,3,3.0,Anchorage Municipality,1751,,2021,1,246,296,Active,,,https://www.redfin.com/AK/Anchorage/8694-Dry-Creek-Loop-99502/unit-61B/home/177807328,AKMLS,22-65,N,Y,61.1413044,-149.9870308
MLS Listing,,Condo/Co-op,8689 Dry Creek Loop #87,Anchorage,AK,99502,459900,3,3.0,Anchorage Municipality,1529,,2020,1,301,298,Active,,,https://www.redfin.com/AK/Anchorage/8689-Dry-Creek-Loop-99502/unit-87/home/177807283,AKMLS,22-63,N,Y,61.139859,-149.9862162
MLS Listing,,Single Family Residential,7721 Randamar Cir,Anchorage,AK,99507,359900,3,1.0,Anchorage Municipality,1196,8751,1983,1,301,,Active,,,https://www.redfin.com/AK/Anchorage/7721-Randamar-Cir-99507/home/131624664,AKMLS,22-61,N,Y,61.1506562,-149.8160301
MLS Listing,,Single Family Residential,647 W 18th Ave,Anchorage,AK,99503,430000,3,2.0,Anchorage Municipality,1588,9053,1962,1,271,,Active,,,https://www.redfin.com/AK/Anchorage/647-W-18th-Ave-99503/home/131484411,AKMLS,22-57,N,Y,61.2040774,-149.8956
MLS Listing,,Single Family Residential,8747 Brookridge Dr,Anchorage,AK,99504,359000,3,2.0,Anchorage Municipality,1856,4198,1996,1,193,,Active,,,https://www.redfin.com/AK/Anchorage/8747-Brookridge-Dr-99504/home/131528645,AKMLS,22-56,N,Y,61.1929669,-149.7210419
MLS Listing,,Single Family Residential,7334 Zurich St,Anchorage,AK,99507,515000,4,4.0,Anchorage Municipality,2095,8450,2021,1,246,,Active,,,https://www.redfin.com/AK/Anchorage/7334-Zurich-St-99507/home/177805022,AKMLS,22-49,N,Y,61.154142,-149.8385659
MLS Listing,,Single Family Residential,22640 Knik Vista St,Chugiak,AK,99567,535000,4,3.0,Anchorage Municipality,2298,24680,1998,1,233,,Active,,,https://www.redfin.com/AK/Chugiak/22640-Knik-Vista-St-99567/home/131936804,AKMLS,22-44,N,Y,61.425086,-149.4812071
MLS Listing,,Condo/Co-op,5018 E 43rd Ave,Anchorage,AK,99508,109900,2,2.0,Anchorage Municipality,768,,1982,1,143,310,Active,,,https://www.redfin.com/AK/Anchorage/5018-E-43rd-Ave-99508/home/131979456,AKMLS,22-43,N,Y,61.1812681,-149.7872244
MLS Listing,,Vacant Land,18509 Potter Glen Cir,Anchorage,AK,99516,139900,0,,Anchorage Municipality,,47306,,1,,26,Active,,,https://www.redfin.com/AK/Anchorage/18509-Potter-Glen-Cir-99516/home/166639641,AKMLS,22-36,N,Y,61.053576,-149.785322
MLS Listing,,Single Family Residential,18550 Chekok Cir,Eagle River,AK,99577,272500,3,2.0,Anchorage Municipality,1264,4063,1982,1,216,75,Active,,,https://www.redfin.com/AK/Eagle-River/18550-Chekok-Cir-99577/home/131641039,AKMLS,22-34,N,Y,61.3077171,-149.536182
MLS Listing,,Single Family Residential,1503 Nunaka Dr,Anchorage,AK,99504,299900,4,2.0,Anchorage Municipality,1508,7900,1953,2,199,,Active,,,https://www.redfin.com/AK/Anchorage/1503-Nunaka-Dr-99504/home/131927575,AKMLS,22-32,N,Y,61.2069731,-149.7697301
MLS Listing,,Condo/Co-op,4511 Folker St Unit 41A,Anchorage,AK,99507,112000,1,2.0,Anchorage Municipality,630,,1975,2,178,190,Active,,,https://www.redfin.com/AK/Anchorage/4511-Folker-St-99507/unit-41A/home/131485592,AKMLS,22-30,N,Y,61.1798135,-149.830362
MLS Listing,,Condo/Co-op,7558 Foxridge Way Unit 6H,Anchorage,AK,99518,172000,2,2.0,Anchorage Municipality,743,,1982,3,231,300,Active,,,https://www.redfin.com/AK/Anchorage/7558-Foxridge-Way-99518/unit-6-H/home/131229866,AKMLS,22-15,N,Y,61.152722,-149.885959
MLS Listing,,Single Family Residential,10255 Arborvitae Dr,Anchorage,AK,99507,301000,3,1.0,Anchorage Municipality,1106,4819,1987,3,272,,Active,,,https://www.redfin.com/AK/Anchorage/10255-Arborvitae-Dr-99507/home/131903920,AKMLS,22-11,N,Y,61.1279579,-149.8509628
MLS Listing,,Multi-Family (2-4 Unit),1002/1004 W 29th Pl,Anchorage,AK,99503,219000,4,2.0,Anchorage Municipality,1992,7000,1954,3,110,,Active,,,https://www.redfin.com/AK/Anchorage/1004-W-29th-Pl-99503/home/177797791,AKMLS,22-4,N,Y,61.1935919,-149.9021742
MLS Listing,,Single Family Residential,4352 Rendezvous Cir,Anchorage,AK,99504,419900,4,3.0,Anchorage Municipality,2305,8712,1979,3,182,,Active,,,https://www.redfin.com/AK/Anchorage/4352-Rendezvous-Cir-99504/home/131877583,AKMLS,22-1,N,Y,61.1819734,-149.7198676
MLS Listing,,Condo/Co-op,6027 More Ln,Anchorage,AK,99504,135000,2,1.0,Anchorage Municipality,786,,1975,4,172,280,Active,,,https://www.redfin.com/AK/Anchorage/6027-More-Ln-99504/home/131976491,AKMLS,21-18196,N,Y,61.20052,-149.7684
MLS Listing,,Single Family Residential,8715 Cross Pointe Loop,Anchorage,AK,99504,317500,3,2.0,Anchorage Municipality,1753,2884,1997,6,181,9,Active,,,https://www.redfin.com/AK/Anchorage/8715-Cross-Pointe-Loop-99504/home/131472471,AKMLS,21-18165,N,Y,61.2107974,-149.7195644
MLS Listing,,Single Family Residential,1518 Medfra St,Anchorage,AK,99501,415000,3,2.0,Anchorage Municipality,1485,7000,1951,6,279,,Active,,,https://www.redfin.com/AK/Anchorage/1518-Medfra-St-99501/home/131531817,AKMLS,21-18161,N,Y,61.2072966,-149.8591675
MLS Listing,,Multi-Family (2-4 Unit),5301 E 30th Ave,Anchorage,AK,99508,380000,4,2.0,Anchorage Municipality,2124,8400,1975,6,179,,Active,,,https://www.redfin.com/AK/Anchorage/5301-E-30th-Ave-99508/home/131567073,AKMLS,21-18159,N,Y,61.1935452,-149.7820096
MLS Listing,,Single Family Residential,426 N Bragaw St,Anchorage,AK,99508,255000,5,2.0,Anchorage Municipality,1488,6750,1969,6,171,,Active,,,https://www.redfin.com/AK/Anchorage/426-N-Bragaw-St-99508/home/131868525,AKMLS,21-18154,N,Y,61.2273046,-149.8087701
MLS Listing,,Condo/Co-op,4288 Reka Dr,Anchorage,AK,99508,85000,2,1.0,Anchorage Municipality,674,,1974,6,126,287,Active,,,https://www.redfin.com/AK/Anchorage/4288-Reka-Dr-99508/unit-4288/home/131566486,AKMLS,21-18147,N,Y,61.2045092,-149.8002097
MLS Listing,,Single Family Residential,1700 Richardson Dr,Anchorage,AK,99504,475000,5,2.0,Anchorage Municipality,2703,7000,1954,7,176,,Active,,,https://www.redfin.com/AK/Anchorage/1700-Richardson-Dr-99504/home/131649673,AKMLS,21-18145,N,Y,61.2053442,-149.773613
MLS Listing,,Single Family Residential,17150 Nickleen St,Anchorage,AK,99516,599900,3,2.0,Anchorage Municipality,2194,39639,1984,7,273,,Active,,,https://www.redfin.com/AK/Anchorage/17150-Nickleen-St-99516/home/131708192,AKMLS,21-18143,N,Y,61.0656272,-149.7268798
MLS Listing,,Condo/Co-op,1130 W 6TH Ave #2,Anchorage,AK,99501,305000,1,1.0,Anchorage Municipality,761,,1984,7,401,395,Active,,,https://www.redfin.com/AK/Anchorage/1130-W-6th-Ave-99501/unit-2/home/131543683,AKMLS,21-18135,N,Y,61.2164737,-149.9055004
MLS Listing,,Single Family Residential,4150 Vista Ct,Anchorage,AK,99508,450000,4,4.0,Anchorage Municipality,2470,10241,1973,7,182,,Active,,,https://www.redfin.com/AK/Anchorage/4150-Vista-Ct-99508/home/131483259,AKMLS,21-18133,N,Y,61.183414,-149.7844727
MLS Listing,,Single Family Residential,9036 Kruger Dr,Anchorage,AK,99502,517000,5,5.0,Anchorage Municipality,2438,11616,1981,7,212,,Active,,,https://www.redfin.com/AK/Anchorage/9036-Kruger-Dr-99502/home/131622051,AKMLS,21-18129,N,Y,61.1384434,-149.9562101
MLS Listing,,Single Family Residential,13543 Konrad Cir,Eagle River,AK,99577,497500,4,3.0,Anchorage Municipality,2137,11823,2004,7,233,13,Active,,,https://www.redfin.com/AK/Eagle-River/13543-Konrad-Cir-99577/home/131713120,AKMLS,21-18127,N,Y,61.342544,-149.5701371
MLS Listing,,Single Family Residential,7001 Hunt Ave,Anchorage,AK,99504,345000,3,3.0,Anchorage Municipality,1662,6137,1984,8,208,,Active,,,https://www.redfin.com/AK/Anchorage/7001-Hunt-Ave-99504/home/131007848,AKMLS,21-18126,N,Y,61.2138798,-149.7505106
MLS Listing,,Condo/Co-op,7371 Huntsmen Cir Unit 16-A,Anchorage,AK,99518,159900,2,2.0,Anchorage Municipality,741,,1983,8,216,300,Active,,,https://www.redfin.com/AK/Anchorage/7371-Huntsmen-Cir-99518/unit-16-A/home/131491618,AKMLS,21-18123,N,Y,61.1540152,-149.8841954
MLS Listing,,Multi-Family (2-4 Unit),2604 McRae Rd,Anchorage,AK,99517,300000,3,2.0,Anchorage Municipality,1770,8614,1957,8,169,,Active,,,https://www.redfin.com/AK/Anchorage/2604-McRae-Rd-99517/home/131199734,AKMLS,21-18121,N,Y,61.1870898,-149.9333724
MLS Listing,,Single Family Residential,739 W 72nd Ave,Anchorage,AK,99518,350000,4,2.0,Anchorage Municipality,2080,9300,1963,8,168,,Active,,,https://www.redfin.com/AK/Anchorage/739-W-72nd-Ave-99518/home/131882157,AKMLS,21-18116,N,Y,61.155734,-149.893572
MLS Listing,,Single Family Residential,3521 Kachemak Cir,Anchorage,AK,99515,405000,3,2.0,Anchorage Municipality,1714,10387,1973,8,236,80,Active,,,https://www.redfin.com/AK/Anchorage/3521-Kachemak-Cir-99515/home/131899171,AKMLS,21-18110,N,Y,61.1298518,-149.9461863
MLS Listing,,Single Family Residential,11500 Hillside Dr,Anchorage,AK,99507,360000,2,1.0,Anchorage Municipality,1248,59796,1964,8,288,,Active,,,https://www.redfin.com/AK/Anchorage/11500-Hillside-Dr-99507/home/131519503,AKMLS,21-18109,N,Y,61.1163911,-149.7454346
MLS Listing,,Single Family Residential,16108 Stineburg Dr,Eagle River,AK,99577,590000,4,3.0,Anchorage Municipality,2353,7393,2013,8,251,10,Active,,,https://www.redfin.com/AK/Eagle-River/16108-Stineburg-Dr-99577/home/131643917,AKMLS,21-18107,N,Y,61.3371489,-149.5820378
MLS Listing,,Vacant Land,L5A BC Marston Dr,Anchorage,AK,99517,600000,0,,Anchorage Municipality,,37864,,9,,,Active,,,https://www.redfin.com/AK/Anchorage/L5A-BC-Marston-Dr-99517/home/177708727,AKMLS,21-18101,N,Y,61.2027315,-149.9433541
MLS Listing,,Condo/Co-op,8050 Pioneer Dr #1604,Anchorage,AK,99504,215000,3,3.0,Anchorage Municipality,1402,,1983,13,153,300,Active,,,https://www.redfin.com/AK/Anchorage/8050-Pioneer-Dr-99504/unit-1604/home/131294364,AKMLS,21-18074,N,Y,61.1849878,-149.7318903
MLS Listing,,Single Family Residential,1840 Mount Yukla Cir,Eagle River,AK,99577,445000,6,4.0,Anchorage Municipality,3797,59099,2000,13,117,,Active,,,https://www.redfin.com/AK/Eagle-River/1840-Mt-Yukla-Cir-99577/home/131670510,AKMLS,21-18071,N,Y,61.237925,-149.27117
MLS Listing,,Multi-Family (2-4 Unit),6530 E 10th Ave,Anchorage,AK,99504,199000,8,4.0,Anchorage Municipality,2940,9300,1962,14,68,,Active,,,https://www.redfin.com/AK/Anchorage/6530-E-10th-Ave-99504/home/131363857,AKMLS,21-18065,N,Y,61.2125205,-149.7583067
MLS Listing,,Single Family Residential,8019 Grayhawk Cir,Anchorage,AK,99507,558000,4,3.0,Anchorage Municipality,2093,6493,2015,15,267,,Active,,,https://www.redfin.com/AK/Anchorage/8019-Grayhawk-Cir-99507/home/132079215,AKMLS,21-18035,N,Y,61.1481476,-149.8166878
MLS Listing,,Multi-Family (2-4 Unit),3082 Telequana Dr,Anchorage,AK,99517,749900,10,6.0,Anchorage Municipality,5200,10585,1975,15,144,,Active,,,https://www.redfin.com/AK/Anchorage/3082-Telequana-Dr-99517/home/131874358,AKMLS,21-18031,N,Y,61.1920841,-149.9561307
MLS Listing,,Single Family Residential,24239 Park Dr,Chugiak,AK,99567,377900,3,2.0,Anchorage Municipality,1376,25527,2021,17,275,,Active,,,https://www.redfin.com/AK/Chugiak/24239-Park-Dr-99567/home/131539228,AKMLS,21-18006,N,Y,61.4092537,-149.4294602
MLS Listing,,Single Family Residential,10129 Thimble Berry Dr,Anchorage,AK,99515,207000,2,2.0,Anchorage Municipality,990,3122,1984,17,209,,Active,,,https://www.redfin.com/AK/Anchorage/10129-Thimble-Berry-Dr-99515/home/131244351,AKMLS,21-18005,N,Y,61.1287924,-149.857606
MLS Listing,,Single Family Residential,17740 Chilkat Ct,Eagle River,AK,99577,330000,3,2.0,Anchorage Municipality,2288,11670,1975,18,144,,Active,,,https://www.redfin.com/AK/Eagle-River/17740-Chilkat-Ct-99577/home/131210916,AKMLS,21-17984,N,Y,61.3150755,-149.5512028
MLS Listing,,Condo/Co-op,440 E 11th Ave #7,Anchorage,AK,99501,82500,2,1.0,Anchorage Municipality,739,,1969,18,112,370,Active,,,https://www.redfin.com/AK/Anchorage/440-E-11th-Ave-99501/unit-7/home/177660330,AKMLS,21-17974,N,Y,61.2113781,-149.8754169
MLS Listing,,Single Family Residential,1913 S Salem Dr,Anchorage,AK,99508,385000,4,2.0,Anchorage Municipality,1976,8747,1965,19,195,,Active,,,https://www.redfin.com/AK/Anchorage/1913-S-Salem-Dr-99508/home/131038541,AKMLS,21-17964,N,Y,61.1834707,-149.8454279
MLS Listing,,Vacant Land,8620 Molanary Dr,Anchorage,AK,99502,180000,0,,Anchorage Municipality,,14749,,19,,,Active,,,https://www.redfin.com/AK/Anchorage/8620-Molanary-Dr-99502/home/177652709,AKMLS,21-17958,N,Y,61.1421792,-149.9508368
MLS Listing,,Condo/Co-op,4660 Reka Dr #03,Anchorage,AK,99508,89900,2,2.0,Anchorage Municipality,926,,1978,19,97,382,Active,,,https://www.redfin.com/AK/Anchorage/4660-Reka-Dr-99508/unit-03/home/177652547,AKMLS,21-17957,N,Y,61.204159,-149.793823
MLS Listing,,Single Family Residential,18725 Sarichef Loop,Eagle River,AK,99577,299900,4,3.0,Anchorage Municipality,1819,5020,1983,19,165,,Active,,,https://www.redfin.com/AK/Eagle-River/18725-Sarichef-Loop-99577/home/131339064,AKMLS,21-17949,N,Y,61.3051162,-149.5331915
MLS Listing,,Multi-Family (2-4 Unit),1330 & 1338 Juneau St,Anchorage,AK,99501,995000,16,8.0,Anchorage Municipality,6408,14000,1983,20,155,,Active,,,https://www.redfin.com/AK/Anchorage/1330-Juneau-St-99501/home/131549103,AKMLS,21-17924,N,Y,61.2091367,-149.8654438
MLS Listing,,Condo/Co-op,4650 Reka Dr Unit F23,Anchorage,AK,99508,116900,3,2.0,Anchorage Municipality,1065,,1978,21,110,419,Active,,,https://www.redfin.com/AK/Anchorage/4650-Reka-Dr-99508/unit-F23/home/131547857,AKMLS,21-17899,N,Y,61.2028699,-149.7950262
MLS Listing,,Single Family Residential,13420 Alex Cir,Eagle River,AK,99577,534900,4,3.0,Anchorage Municipality,2266,17335,2004,21,236,13,Active,,,https://www.redfin.com/AK/Eagle-River/13420-Alex-Cir-99577/home/131680965,AKMLS,21-17898,N,Y,61.3421343,-149.5716159
MLS Listing,,Single Family Residential,7611 Randamar Cir,Anchorage,AK,99507,280000,3,1.0,Anchorage Municipality,1196,8541,1983,22,234,,Active,,,https://www.redfin.com/AK/Anchorage/7611-Randamar-Cir-99507/home/131491065,AKMLS,21-17893,N,Y,61.1516373,-149.8159219
MLS Listing,,Condo/Co-op,1110 W 6th Ave #606,Anchorage,AK,99501,138000,1,1.0,Anchorage Municipality,560,,1950,22,246,383,Active,,,https://www.redfin.com/AK/Anchorage/1110-W-6th-Ave-99501/unit-606/home/131451034,AKMLS,21-17873,N,Y,61.2163686,-149.9043501
MLS Listing,,Vacant Land,550 Bragaw St,Anchorage,AK,99508,5500000,0,,Anchorage Municipality,,306426,,22,,,Active,,,https://www.redfin.com/AK/Anchorage/550-Bragaw-St-99508/home/172230947,AKMLS,21-17866,N,Y,61.2175846,-149.8103761
MLS Listing,,Vacant Land,2130 E Dimond Blvd,Anchorage,AK,99507,2000000,0,,Anchorage Municipality,,100000,,22,,,Active,,,https://www.redfin.com/AK/Anchorage/2130-E-Dimond-Blvd-99507/home/172150998,AKMLS,21-17865,N,Y,61.1444063,-149.8413384
MLS Listing,,Vacant Land,L12 E 10th Ave,Anchorage,AK,99501,75000,0,,Anchorage Municipality,,7000,,22,,,Active,,,https://www.redfin.com/AK/Anchorage/L12-E-10th-Ave-99501/home/177708798,AKMLS,21-17863,N,Y,61.212886,-149.867275
MLS Listing,,Multi-Family (2-4 Unit),8021 Northwind Ave,Anchorage,AK,99504,450000,6,3.0,Anchorage Municipality,2680,6000,1979,23,168,,Active,,,https://www.redfin.com/AK/Anchorage/8021-Northwind-Ave-99504/home/131450690,AKMLS,21-17861,N,Y,61.190232,-149.7306619
MLS Listing,,Single Family Residential,9470 Jupiter Dr,Anchorage,AK,99507,565000,3,3.0,Anchorage Municipality,3877,20020,1971,24,146,,Active,,,https://www.redfin.com/AK/Anchorage/9470-Jupiter-Dr-99507/home/131901648,AKMLS,21-17860,N,Y,61.1350912,-149.7976076
MLS Listing,,Single Family Residential,2412 Sprindrift Cir,Anchorage,AK,99515,409000,3,3.0,Anchorage Municipality,1700,6429,1987,24,241,,Active,,,https://www.redfin.com/AK/Anchorage/2412-Spindrift-Cir-99515/home/131244290,AKMLS,21-17858,N,Y,61.1260257,-149.9258242
MLS Listing,,Single Family Residential,16115 Windjammer Cir,Anchorage,AK,99516,435000,2,1.0,Anchorage Municipality,1328,23018,1977,24,328,,Active,,,https://www.redfin.com/AK/Anchorage/16115-Windjammer-Cir-99516/home/131221768,AKMLS,21-17853,N,Y,61.075047,-149.8074229
MLS Listing,,Single Family Residential,L27 B6 Rivervista Rd,Eagle River,AK,99577,749000,4,4.0,Anchorage Municipality,3128,10455,2022,25,239,,Active,,,https://www.redfin.com/AK/Anchorage/L27-B6-S-River-Dr-99577/home/177586258,AKMLS,21-17836,N,Y,61.2377106,-149.4535597
MLS Listing,,Single Family Residential,20 Owls Nest Ln,Eagle River,AK,99577,627000,4,3.0,Anchorage Municipality,2207,6521,2021,25,284,,Active,,,https://www.redfin.com/AK/Anchorage/20-Owls-Nest-LN-99577/home/177586151,AKMLS,21-17833,N,Y,61.3293186,-149.56805
MLS Listing,,Single Family Residential,4310 Needle Cir,Anchorage,AK,99508,310000,3,1.0,Anchorage Municipality,968,8335,1961,25,320,,Active,,,https://www.redfin.com/AK/Anchorage/4310-Needle-Cir-99508/home/131168737,AKMLS,21-17829,N,Y,61.1810831,-149.8517149
MLS Listing,,Multi-Family (2-4 Unit),720 W 19th Ave,Anchorage,AK,99503,354900,4,2.0,Anchorage Municipality,1560,6927,1963,25,228,,Active,,,https://www.redfin.com/AK/Anchorage/720-W-19th-Ave-99503/home/131567988,AKMLS,21-17830,N,Y,61.202927,-149.8966622
MLS Listing,,Condo/Co-op,515 N St #2,Anchorage,AK,99501,335000,2,1.0,Anchorage Municipality,1127,,1972,25,297,419,Active,,,https://www.redfin.com/AK/Anchorage/515-N-St-99501/unit-2/home/131356030,AKMLS,21-17811,N,Y,61.2172875,-149.9073864
MLS Listing,,Single Family Residential,9532 Grey Owl Way,Eagle River,AK,99577,579000,4,3.0,Anchorage Municipality,2059,6123,2022,26,281,,Active,,,https://www.redfin.com/AK/Anchorage/9532-Grey-Owl-WAY-99577/home/177576070,AKMLS,21-17798,N,Y,61.3293186,-149.56805
MLS Listing,,Single Family Residential,9544 Grey Owls Way,Eagle River,AK,99577,567000,4,3.0,Anchorage Municipality,1949,6035,2022,26,291,,Active,,,https://www.redfin.com/AK/Anchorage/9544-Grey-Owls-WAY-99577/home/177575160,AKMLS,21-17794,N,Y,61.3293186,-149.56805
MLS Listing,,Vacant Land,L32 Southpark Bluff Dr,Anchorage,AK,99516,135000,0,,Anchorage Municipality,,21121,,26,,,Active,,,https://www.redfin.com/AK/Anchorage/L32-Southpark-Bluff-Dr-99516/home/177574836,AKMLS,21-17791,N,Y,61.0759861,-149.797731
MLS Listing,,Vacant Land,Lot 8 Southpark Bluff Dr,Anchorage,AK,99516,109000,0,,Anchorage Municipality,,26353,,26,,,Active,,,https://www.redfin.com/AK/Anchorage/Lot-8-Southpark-Bluff-Dr-99516/home/177574835,AKMLS,21-17792,N,Y,61.074341,-149.799652
MLS Listing,,Vacant Land,L33 B3 Galatea Ests,Anchorage,AK,99507,38500,0,,Anchorage Municipality,,12495,,27,,,Active,,,https://www.redfin.com/AK/Anchorage/L33-B3-Galatea-Dr-99507/home/172194439,AKMLS,21-17770,N,Y,61.158557,-149.837835
MLS Listing,,Single Family Residential,5216 Caribou Ave,Anchorage,AK,99508,385000,6,3.0,Anchorage Municipality,2711,8400,1971,28,142,,Active,,,https://www.redfin.com/AK/Anchorage/5216-Caribou-Ave-99508/home/131365139,AKMLS,21-17735,N,Y,61.2221697,-149.7838088
MLS Listing,,Single Family Residential,16100 Noble Point Dr,Anchorage,AK,99516,765000,4,3.0,Anchorage Municipality,3890,10283,2000,28,197,153,Active,January-8-2022 02:00 PM,January-8-2022 05:00 PM,https://www.redfin.com/AK/Anchorage/16100-Noble-Point-Dr-99516/home/131513526,AKMLS,21-17734,N,Y,61.0752451,-149.7928964
MLS Listing,,Condo/Co-op,7812 Spruce St Unit 2B,Anchorage,AK,99507,299900,2,2.0,Anchorage Municipality,1544,,2001,28,194,330,Active,,,https://www.redfin.com/AK/Anchorage/7812-Spruce-St-99507/unit-2-B/home/130976791,AKMLS,21-17726,N,Y,61.149694,-149.82025
MLS Listing,,Multi-Family (2-4 Unit),2041 E 36th Ave,Anchorage,AK,99508,759000,6,5.0,Anchorage Municipality,4424,9480,1979,29,172,,Active,,,https://www.redfin.com/AK/Anchorage/2041-E-36th-Ave-99508/home/131290029,AKMLS,21-17721,N,Y,61.188347,-149.843432
MLS Listing,,Condo/Co-op,7141 Weimer Rd #19,Anchorage,AK,99502,92500,1,1.0,Anchorage Municipality,415,,1976,29,223,337,Active,,,https://www.redfin.com/AK/Anchorage/7141-Weimer-Rd-99502/unit-19/home/177511908,AKMLS,21-17720,N,Y,61.1559339,-149.9501367
MLS Listing,,Single Family Residential,3331 Amber Bay Loop,Anchorage,AK,99515,395000,3,2.0,Anchorage Municipality,1520,7944,1970,29,260,90,Active,,,https://www.redfin.com/AK/Anchorage/3331-Amber-Bay-Loop-99515/home/131171328,AKMLS,21-17716,N,Y,61.1278307,-149.9428626
MLS Listing,,Mobile/Manufactured Home,2221 Muldoon Rd #591,Anchorage,AK,99504,37995,3,1.0,Anchorage Municipality,980,,1975,29,39,440,Active,,,https://www.redfin.com/AK/Anchorage/2221-Muldoon-Rd-99504/unit-591/home/172155695,AKMLS,21-17712,N,Y,61.2003437,-149.7283101
MLS Listing,,Single Family Residential,7227 Bern St,Anchorage,AK,99518,395000,4,3.0,Anchorage Municipality,1898,8450,1986,29,208,,Active,,,https://www.redfin.com/AK/Anchorage/7227-Bern-St-99507/home/131180818,AKMLS,21-17710,N,Y,61.1550369,-149.8393971
MLS Listing,,Single Family Residential,17777 Rivervista Rd,Eagle River,AK,99577,849000,5,4.0,Anchorage Municipality,4089,10351,2022,29,208,,Active,,,https://www.redfin.com/AK/Anchorage/17777-S-River-Dr-99577/home/177510810,AKMLS,21-17708,N,Y,61.2377106,-149.4535597
MLS Listing,,Single Family Residential,8867 Skyvista Cir,Eagle River,AK,99577,639000,3,2.0,Anchorage Municipality,1752,9400,2022,29,365,,Active,,,https://www.redfin.com/AK/Anchorage/8867-Skyvista-CIR-99577/home/177510696,AKMLS,21-17707,N,Y,61.3293186,-149.56805
MLS Listing,,Single Family Residential,8868 Skyvista Cir,Eagle River,AK,99577,679000,4,3.0,Anchorage Municipality,2330,8919,2022,29,291,,Active,,,https://www.redfin.com/AK/Anchorage/8868-Skyvista-CIR-99577/home/177510630,AKMLS,21-17706,N,Y,61.3293186,-149.56805
MLS Listing,,Multi-Family (2-4 Unit),1140 Friendly Ln,Anchorage,AK,99504,350000,5,2.0,Anchorage Municipality,2000,8418,1977,31,175,,Active,,,https://www.redfin.com/AK/Anchorage/1140-Friendly-Ln-99504/unit-A/home/131615936,AKMLS,21-17675,N,Y,61.2115379,-149.7280966
MLS Listing,,Condo/Co-op,100 Bunnell St Unit 10B,Anchorage,AK,99508,189000,2,2.0,Anchorage Municipality,1079,,1981,31,175,280,Active,,,https://www.redfin.com/AK/Anchorage/100-Bunnell-St-99508/unit-10B/home/131502949,AKMLS,21-17673,N,Y,61.2239769,-149.7901377
MLS Listing,,Vacant Land,8100 Lake Otis Pkwy,Anchorage,AK,99518,575000,0,,Anchorage Municipality,,20933,,31,,,Active,,,https://www.redfin.com/AK/Anchorage/8100-Lake-Otis-Pkwy-99507/home/177496067,AKMLS,21-17668,N,Y,61.1471713,-149.8342062
MLS Listing,,Vacant Land,6481 Askeland Dr,Anchorage,AK,99503,80000,0,,Anchorage Municipality,,9839,,32,,,Active,,,https://www.redfin.com/AK/Anchorage/6481-Askeland-Dr-99507/home/131795606,AKMLS,21-17666,N,Y,61.161827,-149.845214
MLS Listing,,Single Family Residential,8838 Dome Cir,Eagle River,AK,99577,469000,3,3.0,Anchorage Municipality,1708,5239,2022,32,275,8,Active,,,https://www.redfin.com/AK/Eagle-River/8838-Dome-Cir-99577/home/131723773,AKMLS,21-17662,N,Y,61.3007106,-149.5366645
MLS Listing,,Multi-Family (2-4 Unit),1723 E 59th Ave,Anchorage,AK,99507,590000,8,4.0,Anchorage Municipality,4248,11203,1983,32,139,,Active,,,https://www.redfin.com/AK/Anchorage/1723-E-59th-Ave-99507/home/131665978,AKMLS,21-17661,N,Y,61.1677166,-149.8495958
MLS Listing,,Single Family Residential,3021 W 91 St,Anchorage,AK,99502,425000,5,2.0,Anchorage Municipality,1700,8828,1977,32,250,,Active,,,https://www.redfin.com/AK/Anchorage/3021-W-91st-Ave-99502/home/131750361,AKMLS,21-17651,N,Y,61.1384678,-149.9353213
MLS Listing,,Single Family Residential,7070 Fergy Cir,Anchorage,AK,99507,359000,3,2.0,Anchorage Municipality,1534,6435,1983,32,234,,Active,,,https://www.redfin.com/AK/Anchorage/7070-Fergy-Cir-99507/home/131835437,AKMLS,21-17635,N,Y,61.1566516,-149.8206928
MLS Listing,,Vacant Land,8000 Independence Park Dr,Anchorage,AK,99518,750000,0,,Anchorage Municipality,,190176,,32,,,Active,,,https://www.redfin.com/AK/Anchorage/8000-Independence-Dr-99507/home/177486369,AKMLS,21-17630,N,Y,61.137238,-149.8427813
MLS Listing,,Multi-Family (2-4 Unit),5000 Taku Dr,Anchorage,AK,99508,2772000,30,43.0,Anchorage Municipality,28580,26325,1969,33,97,,Active,,,https://www.redfin.com/AK/Anchorage/5000-Taku-Dr-99508/home/172147989,AKMLS,21-17611,N,Y,61.2239242,-149.7875635
MLS Listing,,Single Family Residential,939 R St,Anchorage,AK,99501,650000,2,2.0,Anchorage Municipality,2138,6350,1985,33,304,,Active,,,https://www.redfin.com/AK/Anchorage/939-R-St-99501/home/131088864,AKMLS,21-17593,N,Y,61.2128564,-149.9133668
MLS Listing,,Vacant Land,1306 Chugach Way,Anchorage,AK,99503,1000000,0,,Anchorage Municipality,,64013,,34,,,Active,,,https://www.redfin.com/AK/Anchorage/1306-Chugach-Way-99503/home/166634812,AKMLS,21-17579,N,Y,61.1867325,-149.9083884
MLS Listing,,Single Family Residential,9920 Zeus Cir,Anchorage,AK,99515,569900,3,3.0,Anchorage Municipality,1730,8961,2021,34,329,,Active,,,https://www.redfin.com/AK/ANCHORAGE/9920-ZEUS-CIR-99515/home/166025231,AKMLS,21-17529,N,Y,61.131471,-149.91106
MLS Listing,,Single Family Residential,5445 E 172nd Ave,Anchorage,AK,99516,965000,4,4.0,Anchorage Municipality,4418,90169,1989,35,218,,Active,,,https://www.redfin.com/AK/Anchorage/5445-E-172nd-Ave-99516/home/131625227,AKMLS,21-17512,N,Y,61.0657892,-149.7800779
MLS Listing,,Single Family Residential,12016 Wilderness Rd,Anchorage,AK,99516,449000,3,2.0,Anchorage Municipality,2520,16800,1974,36,178,,Active,,,https://www.redfin.com/AK/Anchorage/12016-Wilderness-Rd-99516/home/131803957,AKMLS,21-17444,N,Y,61.1116979,-149.7983568
MLS Listing,,Single Family Residential,1420 Columbine St,Anchorage,AK,99508,414900,3,2.0,Anchorage Municipality,1443,7500,2018,36,288,,Active,,,https://www.redfin.com/AK/Anchorage/1420-Columbine-St-99508/home/166656072,AKMLS,21-17459,N,Y,61.2083993,-149.8182579
MLS Listing,,Condo/Co-op,8101 Peck Ave Unit J70,Anchorage,AK,99504,161000,2,2.0,Anchorage Municipality,1104,,1983,40,146,195,Active,,,https://www.redfin.com/AK/Anchorage/8101-Peck-Ave-99504/unit-J70/home/131466475,AKMLS,21-17415,N,Y,61.2225788,-149.726642
MLS Listing,,Vacant Land,6514 Lake Otis Pkwy,Anchorage,AK,99507,450000,0,,Anchorage Municipality,,37018,,41,,,Active,,,https://www.redfin.com/AK/Anchorage/6514-Lake-Otis-Pkwy-99507/home/177330335,AKMLS,21-17393,N,Y,61.161758,-149.8349989
MLS Listing,,Mobile/Manufactured Home,3407 Spenard Rd #26,Anchorage,AK,99503,48000,2,1.0,Anchorage Municipality,780,,2001,43,62,,Active,,,https://www.redfin.com/AK/Anchorage/3407-Spenard-Rd-99503/unit-26/home/177306442,AKMLS,21-17345,N,Y,61.189063,-149.9075183
MLS Listing,,Vacant Land,3705 Image Dr,Anchorage,AK,99504,520000,0,,Anchorage Municipality,,109220,,45,,,Active,,,https://www.redfin.com/AK/Anchorage/3705-Image-Dr-99504/home/131393117,AKMLS,21-17315,N,Y,61.186688,-149.769943
MLS Listing,,Single Family Residential,8380 Stratton Cir,Anchorage,AK,99507,214900,2,1.0,Anchorage Municipality,840,4126,1983,45,256,,Active,,,https://www.redfin.com/AK/Anchorage/8380-Stratton-Cir-99507/home/131401379,AKMLS,21-17313,N,Y,61.1449719,-149.8225591
MLS Listing,,Single Family Residential,3716 Locarno Dr,Anchorage,AK,99508,465000,4,3.0,Anchorage Municipality,2900,9600,1976,45,160,4,Active,,,https://www.redfin.com/AK/Anchorage/3716-Locarno-Dr-99508/home/131144033,AKMLS,21-17303,N,Y,61.1870929,-149.8564984
MLS Listing,,Vacant Land,0000 Upper Canyon Dr,Eagle River,AK,99577,50000,0,,Anchorage Municipality,,46009,,46,,,Active,,,https://www.redfin.com/AK/Anchorage/Upper-Canyon-Dr-99577/home/177279827,AKMLS,21-17292,N,Y,61.314079,-149.472903
MLS Listing,,Single Family Residential,6421 Rockridge Dr,Anchorage,AK,99516,649900,4,4.0,Anchorage Municipality,2544,54450,1975,46,255,,Active,,,https://www.redfin.com/AK/Anchorage/6421-Rockridge-Dr-99516/home/131220242,AKMLS,21-17287,N,Y,61.1170532,-149.7620147
MLS Listing,,Single Family Residential,19510 S Mitkof Loop,Eagle River,AK,99577,490000,4,3.0,Anchorage Municipality,3016,12317,1993,46,162,75,Active,,,https://www.redfin.com/AK/Eagle-River/19510-S-Mitkof-Loop-99577/home/131755208,AKMLS,21-17270,N,Y,61.3033507,-149.5189705
MLS Listing,,Condo/Co-op,1200 I St #312,Anchorage,AK,99501,296000,2,1.0,Anchorage Municipality,1050,,1974,47,282,497,Active,,,https://www.redfin.com/AK/Anchorage/1200-I-St-99501/unit-312/home/131353115,AKMLS,21-17258,N,Y,61.2099453,-149.9007438
MLS Listing,,Vacant Land,717 & 735 E 4th Ave,Anchorage,AK,99501,750000,0,,Anchorage Municipality,,40600,,47,,,Active,,,https://www.redfin.com/AK/Anchorage/735-E-4th-Ave-99501/home/177271836,AKMLS,21-17254,N,Y,61.218826,-149.869292
MLS Listing,,Single Family Residential,18331 Potter Bluff Cir,Anchorage,AK,99516,739900,5,4.0,Anchorage Municipality,4102,10761,2000,48,180,,Active,,,https://www.redfin.com/AK/Anchorage/18331-Potter-Bluff-Cir-99516/home/131664828,AKMLS,21-17216,N,Y,61.0546529,-149.7933265
MLS Listing,,Multi-Family (2-4 Unit),4606 Garfield St,Anchorage,AK,99503,280000,3,2.0,Anchorage Municipality,1644,7500,1960,48,170,,Active,,,https://www.redfin.com/AK/Anchorage/4606-Garfield-St-99503/home/131146481,AKMLS,21-17213,N,Y,61.1781355,-149.9095802
MLS Listing,,Single Family Residential,269 Kester Cir,Anchorage,AK,99504,159900,2,1.0,Anchorage Municipality,640,7500,1958,48,250,,Active,,,https://www.redfin.com/AK/Anchorage/269-Kester-Cir-99504/home/131527719,AKMLS,21-17210,N,Y,61.2210357,-149.7357372
MLS Listing,,Vacant Land,12241 Mary Ave,Anchorage,AK,99515,155000,0,,Anchorage Municipality,,11700,,50,,,Active,,,https://www.redfin.com/AK/Anchorage/12241-Mary-Ave-99515/home/131636209,AKMLS,21-17164,N,Y,61.1094806,-149.8885067
MLS Listing,,Multi-Family (2-4 Unit),600 Turpin St,Anchorage,AK,99504,325000,4,2.0,Anchorage Municipality,1760,8400,1975,52,185,,Active,,,https://www.redfin.com/AK/Anchorage/600-Turpin-St-99504/unit-1/home/131747282,AKMLS,21-17108,N,Y,61.2162543,-149.7564711
MLS Listing,,Condo/Co-op,5561 Big Bear Way #25,Anchorage,AK,99504,346000,3,3.0,Anchorage Municipality,1658,3139,2017,53,209,270,Active,,,https://www.redfin.com/AK/Anchorage/5561-Big-Bear-Way-99504/unit-25/home/177175518,AKMLS,21-17097,N,Y,61.1869666,-149.7768577
MLS Listing,,Single Family Residential,19340 Verdant Cir,Eagle River,AK,99577,500000,4,3.0,Anchorage Municipality,3182,9565,1991,53,157,,Active,,,https://www.redfin.com/AK/Eagle-River/19340-Verdant-Cir-99577/home/131759902,AKMLS,21-17080,N,Y,61.3038155,-149.5214571
MLS Listing,,Vacant Land,8650 Sultana Dr,Anchorage,AK,99516,250000,0,,Anchorage Municipality,,49527,,53,,,Active,,,https://www.redfin.com/AK/Anchorage/8650-Sultana-Dr-99516/home/172159058,AKMLS,21-17075,N,Y,61.1092424,-149.7209399
MLS Listing,,Single Family Residential,2411 Tradewind Dr,Anchorage,AK,99516,469900,3,3.0,Anchorage Municipality,2060,10908,1977,53,228,,Active,,,https://www.redfin.com/AK/Anchorage/2411-Tradewind-Dr-99516/home/131207446,AKMLS,21-17071,N,Y,61.0993384,-149.8386038
MLS Listing,,Multi-Family (2-4 Unit),1401 W 43rd Ave,Anchorage,AK,99503,340000,4,4.0,Anchorage Municipality,3522,7000,1960,55,97,,Active,,,https://www.redfin.com/AK/Anchorage/1401-W-43rd-Ave-99503/home/131789319,AKMLS,21-17012,N,Y,61.1819859,-149.9092629
MLS Listing,,Condo/Co-op,7252 Foxridge Cir Unit 11E,Anchorage,AK,99518,165000,2,2.0,Anchorage Municipality,747,,1983,56,221,300,Active,,,https://www.redfin.com/AK/Anchorage/7252-Foxridge-Cir-99518/unit-11-E/home/131188997,AKMLS,21-16984,N,Y,61.1548436,-149.8826445
MLS Listing,,Condo/Co-op,221 E 7th Ave #204,Anchorage,AK,99501,188000,2,2.0,Anchorage Municipality,1025,,1967,56,183,445,Active,,,https://www.redfin.com/AK/Anchorage/221-E-7th-Ave-99501/unit-204/home/131083538,AKMLS,21-16983,N,Y,61.2159072,-149.8804321
MLS Listing,,Single Family Residential,325 E Manor Ave,Anchorage,AK,99501,445000,3,2.0,Anchorage Municipality,1878,7000,1952,56,237,,Active,,,https://www.redfin.com/AK/Anchorage/325-E-Manor-Ave-99501/home/131526949,AKMLS,21-16982,N,Y,61.2307365,-149.8789573
MLS Listing,,Vacant Land,3045 Mountain View Dr,Anchorage,AK,99501,650000,0,,Anchorage Municipality,,37186,,56,,,Active,,,https://www.redfin.com/AK/Anchorage/3045-Mountain-View-Dr-99501/home/172187119,AKMLS,21-16969,N,Y,61.2203743,-149.8235629
MLS Listing,,Single Family Residential,1843 Scenic Way,Anchorage,AK,99501,660000,3,3.0,Anchorage Municipality,2827,7048,1962,56,233,,Active,,,https://www.redfin.com/AK/Anchorage/1843-Scenic-Way-99501/home/131545782,AKMLS,21-16962,N,Y,61.2094866,-149.9186911
MLS Listing,,Single Family Residential,275 S Bunn St,Anchorage,AK,99508,230000,2,2.0,Anchorage Municipality,792,6780,1998,58,290,,Active,,,https://www.redfin.com/AK/Anchorage/275-Bunn-St-99508/home/131569242,AKMLS,21-16916,N,Y,61.2209734,-149.7986406
MLS Listing,,Condo/Co-op,400 W 76th Ave #201,Anchorage,AK,99518,165000,2,1.0,Anchorage Municipality,903,,1977,60,183,425,Active,,,https://www.redfin.com/AK/Anchorage/400-W-76th-Ave-99518/unit-201/home/131299811,AKMLS,21-16896,N,Y,61.1514173,-149.8896218
MLS Listing,,Condo/Co-op,3271 Montpelier Ct Unit 10B,Anchorage,AK,99503,190000,3,2.0,Anchorage Municipality,1308,,1976,60,145,422,Active,,,https://www.redfin.com/AK/Anchorage/3271-Montpelier-Ct-99503/unit-10-B/home/131322443,AKMLS,21-16876,N,Y,61.1910588,-149.8926363
MLS Listing,,Condo/Co-op,221 E 7th Ave #109,Anchorage,AK,99501,129000,1,1.0,Anchorage Municipality,712,,1967,60,181,312,Active,,,https://www.redfin.com/AK/Anchorage/221-E-7th-Ave-99501/unit-109/home/130979039,AKMLS,21-16866,N,Y,61.2159072,-149.8804321
MLS Listing,,Multi-Family (2-4 Unit),2020 E 72nd Ave,Anchorage,AK,99507,564900,6,5.0,Anchorage Municipality,2984,12196,1981,60,189,,Active,,,https://www.redfin.com/AK/Anchorage/2020-E-72nd-Ave-99507/home/131510368,AKMLS,21-16861,N,Y,61.1553468,-149.8443518
MLS Listing,,Single Family Residential,21650 Graybill St,Chugiak,AK,99567,1950000,9,10.0,Anchorage Municipality,11180,48177,1975,60,174,,Active,,,https://www.redfin.com/AK/Chugiak/21650-Graybill-St-99567/home/131922790,AKMLS,21-16856,N,Y,61.416396,-149.4432908
MLS Listing,,Single Family Residential,8132 Seacliff St,Anchorage,AK,99502,210000,3,1.0,Anchorage Municipality,960,6750,1984,61,219,,Active,,,https://www.redfin.com/AK/Anchorage/8132-Seacliff-St-99502/home/131407341,AKMLS,21-16817,N,Y,61.1468656,-149.9804309
MLS Listing,,Condo/Co-op,6942 Meadow St Unit 2-404,Anchorage,AK,99507,224900,2,2.0,Anchorage Municipality,1001,,2006,62,225,402,Active,,,https://www.redfin.com/AK/Anchorage/6942-Meadow-St-99507/unit-2-404/home/131952133,AKMLS,21-16786,N,Y,61.1575208,-149.8529006
MLS Listing,,Condo/Co-op,5300 E 4th Ave #210,Anchorage,AK,99508,134500,2,2.0,Anchorage Municipality,850,,1983,62,158,316,Active,,,https://www.redfin.com/AK/Anchorage/5300-E-4th-Ave-99508/unit-210/home/131823240,AKMLS,21-16762,N,Y,61.2182101,-149.7819558
MLS Listing,,Condo/Co-op,2650 Lauren Creek Loop #18,Anchorage,AK,99507,265000,3,2.0,Anchorage Municipality,1369,,2002,63,194,164,Active,,,https://www.redfin.com/AK/Anchorage/2650-Lauren-Creek-Loop-99507/unit-18/home/131268687,AKMLS,21-16724,N,Y,61.173123,-149.832455
MLS Listing,,Single Family Residential,5824 Craig Dr,Anchorage,AK,99504,340000,6,3.0,Anchorage Municipality,2789,5419,1973,64,122,,Active,,,https://www.redfin.com/AK/Anchorage/5824-Craig-Dr-99504/home/131109970,AKMLS,21-16666,N,Y,61.2026805,-149.7728276
MLS Listing,,Single Family Residential,18733 S Birchwood Loop Rd,Chugiak,AK,99567,434999,3,3.0,Anchorage Municipality,1520,22688,1998,65,286,,Active,,,https://www.redfin.com/AK/Chugiak/18733-S-Birchwood-Loop-Rd-99567/home/131652248,AKMLS,21-16662,N,Y,61.3896797,-149.5245799
MLS Listing,,Single Family Residential,3914 James Dr,Anchorage,AK,99504,439500,4,2.0,Anchorage Municipality,1824,8200,1966,66,241,,Active,,,https://www.redfin.com/AK/Anchorage/3914-James-Dr-99504/home/131381702,AKMLS,21-16650,N,Y,61.1851925,-149.7380411
MLS Listing,,Vacant Land,Tr B Steamboat Dr,Anchorage,AK,99516,350000,0,,Anchorage Municipality,,3527053,,66,,,Active,,,https://www.redfin.com/AK/Anchorage/Tr-B-Steamboat-Dr-99516/home/172152575,AKMLS,21-16646,N,Y,61.054543,-149.750145
MLS Listing,,Multi-Family (2-4 Unit),7230 E 21st Ave,Anchorage,AK,99504,430000,5,4.0,Anchorage Municipality,2704,7875,1979,67,159,,Active,,,https://www.redfin.com/AK/Anchorage/7230-E-21st-Ave-99504/home/130967649,AKMLS,21-16614,N,Y,61.2018234,-149.7457826
MLS Listing,,Vacant Land,L1 B41A F St,Anchorage,AK,99501,235000,0,,Anchorage Municipality,,7000,,67,,,Active,,,https://www.redfin.com/AK/Anchorage/L1-B41A-F-St-99501/home/177000061,AKMLS,21-16591,N,Y,61.207529,-149.893679
MLS Listing,,Condo/Co-op,7141 Weimer Rd #16,Anchorage,AK,99502,110000,2,1.0,Anchorage Municipality,1010,,1976,67,109,370,Active,,,https://www.redfin.com/AK/Anchorage/7141-Weimer-Rd-99502/unit-16/home/172154849,AKMLS,21-16589,N,Y,61.1559803,-149.9500632
MLS Listing,,Single Family Residential,921 Joham Cir,Anchorage,AK,99515,525000,3,3.0,Anchorage Municipality,2728,7035,1975,67,192,23,Active,,,https://www.redfin.com/AK/Anchorage/921-Joham-Cir-99515/home/131424365,AKMLS,21-16587,N,Y,61.1048663,-149.8645836
MLS Listing,,Single Family Residential,12904 Chapel Dr,Anchorage,AK,99516,445000,4,2.0,Anchorage Municipality,2096,7252,1975,68,212,,Active,,,https://www.redfin.com/AK/Anchorage/12904-Chapel-Dr-99516/home/131215908,AKMLS,21-16575,N,Y,61.1041389,-149.8444074
MLS Listing,,Single Family Residential,10810 Kamishak Bay Cir,Anchorage,AK,99515,515000,5,3.0,Anchorage Municipality,2878,9728,1980,68,179,90,Active,,,https://www.redfin.com/AK/Anchorage/10810-Kamishak-Bay-Cir-99515/home/131208065,AKMLS,21-16556,N,Y,61.122929,-149.9493632
MLS Listing,,Multi-Family (2-4 Unit),808 N Bragaw St,Anchorage,AK,99508,375000,9,4.0,Anchorage Municipality,3840,6250,1969,68,98,,Active,,,https://www.redfin.com/AK/Anchorage/808-N-Bragaw-St-99508/home/131115328,AKMLS,21-16534,N,Y,61.2306613,-149.8089411
MLS Listing,,Multi-Family (2-4 Unit),617 N Flower St,Anchorage,AK,99508,375000,8,4.0,Anchorage Municipality,3456,6247,1965,68,109,,Active,,,https://www.redfin.com/AK/Anchorage/617-N-Flower-St-99508/home/131818655,AKMLS,21-16532,N,Y,61.2290126,-149.8059216
MLS Listing,,Single Family Residential,217 Orange Leaf Cir,Anchorage,AK,99504,188000,2,1.0,Anchorage Municipality,935,3516,1983,69,201,,Active,,,https://www.redfin.com/AK/Anchorage/217-Orange-Leaf-Cir-99504/home/131026522,AKMLS,21-16491,N,Y,61.2218589,-149.7188055
MLS Listing,,Vacant Land,L3 B3 Glenn Hwy,Eagle River,AK,99577,65000,0,,Anchorage Municipality,,59241,,70,,,Active,,,https://www.redfin.com/AK/Eagle-River/L3-B3-Glenn-HWY-99577/home/176981445,AKMLS,21-16476,N,Y,61.3293186,-149.56805
MLS Listing,,Vacant Land,L3-L5 B9 Lynx Way,Eagle River,AK,99577,145000,0,,Anchorage Municipality,,172933,,70,,,Active,,,https://www.redfin.com/AK/Anchorage/L3-L5-B9-Lynx-Way-99577/home/176975911,AKMLS,21-16472,N,Y,61.3137039,-149.4685859
MLS Listing,,Vacant Land,L2-L6 B6 Lower Canyon Dr,Eagle River,AK,99577,90000,0,,Anchorage Municipality,,192535,,70,,,Active,,,https://www.redfin.com/AK/Anchorage/L2-L6-B6-Lower-Canyon-Dr-99577/home/176975843,AKMLS,21-16470,N,Y,61.3123948,-149.4728618
MLS Listing,,Vacant Land,000 E 64th Ave,Anchorage,AK,99518,237585,0,,Anchorage Municipality,,50500,,70,,,Active,,,https://www.redfin.com/AK/Anchorage/1270-E-64th-Ave-99518/home/176974029,AKMLS,21-16460,N,Y,61.1625702,-149.858633
MLS Listing,,Vacant Land,439 Idaho St,Anchorage,AK,99504,80000,0,,Anchorage Municipality,,9258,,71,,,Active,,,https://www.redfin.com/AK/Anchorage/439-Idaho-St-99504/home/172187172,AKMLS,21-16419,N,Y,61.2179794,-149.7366393
MLS Listing,,Single Family Residential,8023 Pioneer Dr,Anchorage,AK,99504,249900,2,2.0,Anchorage Municipality,1138,3767,1981,72,220,,Active,,,https://www.redfin.com/AK/Anchorage/8023-Pioneer-Dr-99504/home/131008632,AKMLS,21-16402,N,Y,61.184657,-149.7301061
MLS Listing,,Single Family Residential,,Anchorage,AK,99516,1150000,2,2.0,Anchorage Municipality,1768,217800,1985,72,650,,Active,,,https://www.redfin.com/AK/Anchorage/Undisclosed-address-99516/home/131065191,AKMLS,21-16399,N,Y,61.0802094,-149.8046646
MLS Listing,,Vacant Land,L28 B3 E 43rd Ave,Anchorage,AK,99508,120000,0,,Anchorage Municipality,,9433,,74,,,Active,,,https://www.redfin.com/AK/Anchorage/L28-B3-E-43rd-Ave-99508/home/172209764,AKMLS,21-16355,N,Y,61.181732,-149.7921708
MLS Listing,,Single Family Residential,420 W 89th Ave,Anchorage,AK,99515,234900,3,2.0,Anchorage Municipality,1764,7500,1983,74,133,,Active,,,https://www.redfin.com/AK/Anchorage/420-W-89th-Ave-99515/home/131396701,AKMLS,21-16343,N,Y,61.1402525,-149.8873168
MLS Listing,,Condo/Co-op,6203 E Tudor Rd #2,Anchorage,AK,99507,175000,2,2.0,Anchorage Municipality,1024,,2008,74,171,280,Active,,,https://www.redfin.com/AK/Anchorage/6203-E-Tudor-Rd-99507/unit-2/home/131006381,AKMLS,21-16332,N,Y,61.1811665,-149.7651792
MLS Listing,,Multi-Family (2-4 Unit),5820 E 4th Ave,Anchorage,AK,99504,450000,8,4.0,Anchorage Municipality,3776,7098,1984,74,119,,Active,,,https://www.redfin.com/AK/Anchorage/5820-E-4th-Ave-99504/home/131376019,AKMLS,21-16330,N,Y,61.2184808,-149.772084
MLS Listing,,Condo/Co-op,333 M St #211,Anchorage,AK,99501,263000,1,2.0,Anchorage Municipality,1218,,1978,74,216,686,Active,,,https://www.redfin.com/AK/Anchorage/333-M-St-99501/unit-211/home/131457040,AKMLS,21-16329,N,Y,61.2187863,-149.9051728
MLS Listing,,Single Family Residential,5810 Big Bend Loop,Anchorage,AK,99502,580000,4,4.0,Anchorage Municipality,3046,9578,2006,75,190,20,Active,,,https://www.redfin.com/AK/Anchorage/5810-Big-Bend-Loop-99502/home/131504602,AKMLS,21-16320,N,Y,61.1432294,-149.9844468
MLS Listing,,Vacant Land,4002 Hayes St,Anchorage,AK,99503,95000,0,,Anchorage Municipality,,8938,,75,,,Active,,,https://www.redfin.com/AK/Anchorage/4002-Hayes-St-99503/home/172211909,AKMLS,21-16307,N,Y,61.184154,-149.9115149
MLS Listing,,Single Family Residential,21930 Judd Cir,Chugiak,AK,99567,394500,4,3.0,Anchorage Municipality,2091,27313,1997,75,189,,Active,,,https://www.redfin.com/AK/Chugiak/21930-Judd-Cir-99567/home/131667052,AKMLS,21-16306,N,Y,61.424701,-149.474482
MLS Listing,,Multi-Family (2-4 Unit),2804 W 30th Ave,Anchorage,AK,99517,575000,8,4.0,Anchorage Municipality,3248,10548,1964,76,177,,Active,,,https://www.redfin.com/AK/Anchorage/2804-W-30th-Ave-99517/home/131378299,AKMLS,21-16271,N,Y,61.1932042,-149.9370142
MLS Listing,,Single Family Residential,3717 Locarno Dr,Anchorage,AK,99508,475000,3,3.0,Anchorage Municipality,1856,9600,1969,76,256,4,Active,,,https://www.redfin.com/AK/Anchorage/3717-Locarno-Dr-99508/home/131358640,AKMLS,21-16233,N,Y,61.1871103,-149.8555423
MLS Listing,,Single Family Residential,14423 Don Cir,Eagle River,AK,99577,529000,4,2.0,Anchorage Municipality,2512,60662,1978,77,211,,Active,,,https://www.redfin.com/AK/Eagle-River/14423-Don-Cir-99577/home/131246056,AKMLS,21-16213,N,Y,61.3509024,-149.5396736
MLS Listing,,Single Family Residential,928 E 9th Ave,Anchorage,AK,99501,220000,3,2.0,Anchorage Municipality,1292,7000,1942,77,170,,Active,,,https://www.redfin.com/AK/Anchorage/928-E-9th-Ave-99501/home/131078773,AKMLS,21-16198,N,Y,61.2133426,-149.8656953
MLS Listing,,Vacant Land,112 Chelsea St,Anchorage,AK,99507,1950000,0,,Anchorage Municipality,,165933,,78,,,Active,,,https://www.redfin.com/AK/Anchorage/112-Chelsea-ST-99507/home/176755190,AKMLS,21-16169,N,Y,61.148769,-149.8010811
MLS Listing,,Vacant Land,6040 Jewel Lake Rd,Anchorage,AK,99502,350000,0,,Anchorage Municipality,,86684,,78,,,Active,,,https://www.redfin.com/AK/Anchorage/6040-Jewel-Lake-Rd-99502/home/173490323,AKMLS,21-16167,N,Y,61.16375,-149.9538948
MLS Listing,,Vacant Land,17227 N Eagle River Loop Rd,Eagle River,AK,99577,2450000,0,,Anchorage Municipality,,1389564,,78,,,Active,,,https://www.redfin.com/AK/Eagle-River/17227-N-Eagle-River-Loop-Rd-99577/home/173441312,AKMLS,21-16165,N,Y,61.328344,-149.5595581
MLS Listing,,Vacant Land,2400 Lake Otis Pkwy,Anchorage,AK,99508,2200000,0,,Anchorage Municipality,,217800,,78,,,Active,,,https://www.redfin.com/AK/Anchorage/2400-Lake-Otis-Pkwy-99508/home/173441390,AKMLS,21-16162,N,Y,61.1993028,-149.8382948
MLS Listing,,Condo/Co-op,6222 E 12th Ave Unit C4,Anchorage,AK,99504,117900,2,1.0,Anchorage Municipality,972,,1977,78,121,397,Active,,,https://www.redfin.com/AK/Anchorage/6222-E-12th-Ave-99504/unit-C4/home/131603752,AKMLS,21-16147,N,Y,61.2109495,-149.7646288
MLS Listing,,Multi-Family (2-4 Unit),4302/4306 Cope St,Anchorage,AK,99503,1147000,21,15.0,Anchorage Municipality,10840,21800,1965,79,106,,Active,,,https://www.redfin.com/AK/Anchorage/4306-Cope-St-99503/home/130996640,AKMLS,21-16123,N,Y,61.1816776,-149.9030648
MLS Listing,,Condo/Co-op,908 Clay Court Ct,Anchorage,AK,99503,296000,3,3.0,Anchorage Municipality,1600,,1975,79,185,320,Active,,,https://www.redfin.com/AK/Anchorage/908-Clay-Ct-99503/unit-03/home/131615481,AKMLS,21-16118,N,Y,61.2009259,-149.8997387
MLS Listing,,Condo/Co-op,8779 Dry Creek Loop Unit 55B,Anchorage,AK,99502,424900,3,3.0,Anchorage Municipality,1916,,2021,79,222,296,Active,,,https://www.redfin.com/AK/Anchorage/8779-Dry-Creek-Loop-99502/unit-55B/home/176745521,AKMLS,21-16114,N,Y,61.139859,-149.9862162
MLS Listing,,Condo/Co-op,8777 Dry Creek Loop Unit 55A,Anchorage,AK,99502,424900,3,3.0,Anchorage Municipality,1916,,2021,79,222,296,Active,,,https://www.redfin.com/AK/Anchorage/8777-Dry-Creek-Loop-99502/unit-55A/home/176745484,AKMLS,21-16112,N,Y,61.139859,-149.9862162
MLS Listing,,Single Family Residential,1517 Turpin St,Anchorage,AK,99504,275000,3,1.0,Anchorage Municipality,1380,10125,1961,80,199,,Active,,,https://www.redfin.com/AK/Anchorage/1517-Turpin-St-99504/home/131373119,AKMLS,21-16104,N,Y,61.2071141,-149.7553937
MLS Listing,,Single Family Residential,20413 Lucas Ave,Eagle River,AK,99577,425000,3,3.0,Anchorage Municipality,2760,22693,1972,81,154,,Active,,,https://www.redfin.com/AK/Eagle-River/20413-Lucas-Ave-99577/home/131598914,AKMLS,21-16092,N,Y,61.3140552,-149.5013898
MLS Listing,,Single Family Residential,8040 Lake Otis Pkwy,Anchorage,AK,99507,370000,4,2.0,Anchorage Municipality,2584,12000,1967,81,143,,Active,,,https://www.redfin.com/AK/Anchorage/8040-Lake-Otis-Pkwy-99507/home/131834435,AKMLS,21-16088,N,Y,61.1478023,-149.835169
MLS Listing,,Condo/Co-op,5546 Big Bear Way,Anchorage,AK,99504,359900,4,3.0,Anchorage Municipality,1634,,2021,81,220,270,Active,,,https://www.redfin.com/AK/Anchorage/5546-Big-Bear-Way-99504/home/176737122,AKMLS,21-16048,N,Y,61.1869666,-149.7768577
MLS Listing,,Condo/Co-op,5538 Big Bear Way #15,Anchorage,AK,99504,354900,4,3.0,Anchorage Municipality,1634,,2021,81,217,270,Active,,,https://www.redfin.com/AK/Anchorage/5538-Big-Bear-Way-99504/unit-15/home/176737120,AKMLS,21-16046,N,Y,61.1869666,-149.7768577
MLS Listing,,Condo/Co-op,5542 Big Bear Way #16,Anchorage,AK,99504,349900,4,3.0,Anchorage Municipality,1634,,2021,81,214,270,Active,,,https://www.redfin.com/AK/Anchorage/5542-Big-Bear-Way-99504/unit-16/home/176737119,AKMLS,21-16047,N,Y,61.1869666,-149.7768577
MLS Listing,,Single Family Residential,1131 China Berry Cir,Anchorage,AK,99515,205000,2,1.0,Anchorage Municipality,880,3967,1985,81,233,,Active,,,https://www.redfin.com/AK/Anchorage/1131-China-Berry-Cir-99515/home/131805810,AKMLS,21-16032,N,Y,61.1300867,-149.8616839
MLS Listing,,Vacant Land,L11 B7 Stroganof Dr,Anchorage,AK,99507,295000,0,,Anchorage Municipality,,33323,,83,,,Active,,,https://www.redfin.com/AK/Anchorage/L11-B7-Stroganof-Dr-99507/home/176721237,AKMLS,21-15957,N,Y,61.125694,-149.71534
MLS Listing,,Condo/Co-op,2212 Glacier St #207,Anchorage,AK,99501,139900,2,2.0,Anchorage Municipality,1027,,1977,83,136,350,Active,,,https://www.redfin.com/AK/Anchorage/2212-Glacier-St-99508/unit-207/home/131111285,AKMLS,21-15944,N,Y,61.2002941,-149.7864949
MLS Listing,,Single Family Residential,L17 B2 Arlene Dr,Anchorage,AK,99502,599000,4,3.0,Anchorage Municipality,2323,7447,2021,84,258,,Active,,,https://www.redfin.com/AK/Anchorage/L17-B2-Arlene-Dr-99502/home/173922955,AKMLS,21-15939,N,Y,61.1352353,-149.9294125
MLS Listing,,Multi-Family (2-4 Unit),2411 Mcrae Rd,Anchorage,AK,99517,1200000,31,31.0,Anchorage Municipality,32000,122600,1970,84,38,,Active,,,https://www.redfin.com/AK/Anchorage/2411-McRae-Rd-99517/home/131789092,AKMLS,21-15931,N,Y,61.186761,-149.9294014
MLS Listing,,Mobile/Manufactured Home,810 Kathy Pl,Anchorage,AK,99504,89900,3,1.0,Anchorage Municipality,2000,8640,1971,84,45,,Active,,,https://www.redfin.com/AK/Anchorage/810-Kathy-Pl-99504/home/131870115,AKMLS,21-15918,N,Y,61.214361,-149.7248152
MLS Listing,,Condo/Co-op,3333 Lakeshore Dr #3,Anchorage,AK,99517,269900,3,2.0,Anchorage Municipality,1140,,1972,86,237,450,Active,,,https://www.redfin.com/AK/Anchorage/3333-Lakeshore-Dr-99517/unit-3/home/131745810,AKMLS,21-15850,N,Y,61.1810481,-149.9450128
MLS Listing,,Condo/Co-op,4109 Lynn Dr #211,Anchorage,AK,99508,139000,2,1.0,Anchorage Municipality,787,,1983,88,177,395,Active,,,https://www.redfin.com/AK/Anchorage/4109-Lynn-Dr-99508/unit-211/home/131450847,AKMLS,21-15803,N,Y,61.1838721,-149.7795817
MLS Listing,,Multi-Family (2-4 Unit),16305 Carlisle St,Eagle River,AK,99577,750000,6,5.0,Anchorage Municipality,4800,53412,1986,88,156,,Active,,,https://www.redfin.com/AK/Eagle-River/16305-Carlisle-St-99577/home/131728388,AKMLS,21-15778,N,Y,61.3693885,-149.5370971
MLS Listing,,Condo/Co-op,3333 Lakeshore Dr #6,Anchorage,AK,99517,299000,2,3.0,Anchorage Municipality,1140,,1972,88,262,450,Active,,,https://www.redfin.com/AK/Anchorage/3333-Lakeshore-Dr-99517/unit-6/home/131603696,AKMLS,21-15748,N,Y,61.1810481,-149.9450128
MLS Listing,,Condo/Co-op,1810 Arctic Blvd #6,Anchorage,AK,99503,217500,2,2.0,Anchorage Municipality,1226,,1963,89,177,340,Active,,,https://www.redfin.com/AK/Anchorage/1810-Arctic-Blvd-99503/unit-06/home/131556552,AKMLS,21-15703,N,Y,61.2039712,-149.8981275
MLS Listing,,Multi-Family (2-4 Unit),3816 Peterkin Ave,Anchorage,AK,99508,399900,12,6.0,Anchorage Municipality,5360,6750,1978,90,75,,Active,,,https://www.redfin.com/AK/Anchorage/3816-Peterkin-Ave-99508/home/131783594,AKMLS,21-15641,N,Y,61.2256776,-149.8095867
MLS Listing,,Multi-Family (2-4 Unit),4420 Van Buren St,Anchorage,AK,99517,319900,4,3.0,Anchorage Municipality,2000,14122,1958,92,160,,Active,,,https://www.redfin.com/AK/Anchorage/4420-Van-Buren-St-99517/home/131156160,AKMLS,21-15560,N,Y,61.1804701,-149.923444
MLS Listing,,Multi-Family (2-4 Unit),8040 E 32nd Ave,Anchorage,AK,99504,475000,6,3.0,Anchorage Municipality,2597,9000,2001,92,183,,Active,,,https://www.redfin.com/AK/Anchorage/8040-E-32nd-Ave-99504/home/131550406,AKMLS,21-15559,N,Y,61.1917213,-149.7299526
MLS Listing,,Condo/Co-op,8509 Sara Lynn Pl #32,Anchorage,AK,99502,218000,2,2.0,Anchorage Municipality,1094,,2003,95,199,262,Active,,,https://www.redfin.com/AK/Anchorage/8509-Sara-Lynn-Pl-99502/unit-32/home/131715239,AKMLS,21-15497,N,Y,61.143629,-149.953326
MLS Listing,,Condo/Co-op,1200 I St #707,Anchorage,AK,99501,295000,2,2.0,Anchorage Municipality,1052,,1982,95,280,595,Active,,,https://www.redfin.com/AK/Anchorage/1200-I-St-99501/unit-707/home/131571085,AKMLS,21-15466,N,Y,61.2099453,-149.9007438
MLS Listing,,Vacant Land,L2 B3 Northfield Dr,Anchorage,AK,99516,220000,0,,Anchorage Municipality,,54832,,96,,,Active,,,https://www.redfin.com/AK/Anchorage/L2-B3-Northfield-Dr-99516/home/176581692,AKMLS,21-15440,N,Y,61.0857313,-149.7613162
MLS Listing,,Vacant Land,L09 B2 Shady Birch,Anchorage,AK,99502,130000,0,,Anchorage Municipality,,23100,,98,,,Active,,,https://www.redfin.com/AK/Anchorage/L09-B2-Shady-Birch-Pl-99502/home/176561236,AKMLS,21-15349,N,Y,61.1525568,-149.9399018
MLS Listing,,Vacant Land,L10 B2 Shady Birch,Anchorage,AK,99502,130000,0,,Anchorage Municipality,,25500,,98,,,Active,,,https://www.redfin.com/AK/Anchorage/L10-B2-Shady-Birch-Pl-99502/home/174435073,AKMLS,21-15350,N,Y,61.1525568,-149.9399018
MLS Listing,,Vacant Land,4231 London Cir,Anchorage,AK,99504,185000,0,,Anchorage Municipality,,17306,,99,,,Active,,,https://www.redfin.com/AK/Anchorage/4231-London-Cir-99504/home/166634393,AKMLS,21-15287,N,Y,61.18203,-149.75789
MLS Listing,,Single Family Residential,8739 Turlock Dr,Eagle River,AK,99577,649960,4,3.0,Anchorage Municipality,2800,7475,2021,99,232,,Active,,,https://www.redfin.com/AK/EAGLE-RIVER/8739-TURLOCK-DR-99577/home/166604360,AKMLS,21-15269,N,Y,61.299617,-149.546764
MLS Listing,,Single Family Residential,1364 W 23rd Ave,Anchorage,AK,99503,359000,4,2.0,Anchorage Municipality,1752,7000,1952,101,205,,Active,,,https://www.redfin.com/AK/Anchorage/1364-W-23rd-Ave-99503/home/131615492,AKMLS,21-15234,N,Y,61.1991654,-149.9101087
MLS Listing,,Single Family Residential,401 E 23rd Ave,Anchorage,AK,99503,259900,3,1.0,Anchorage Municipality,1160,7800,1956,102,224,,Active,,,https://www.redfin.com/AK/Anchorage/401-E-23rd-Ave-99503/home/131579819,AKMLS,21-15228,N,Y,61.2003117,-149.8766705
MLS Listing,,Single Family Residential,16529 Marcus St,Eagle River,AK,99577,399900,4,2.0,Anchorage Municipality,2624,12245,1968,102,152,,Active,,,https://www.redfin.com/AK/Eagle-River/16529-Marcus-St-99577/home/131217568,AKMLS,21-15215,N,Y,61.3357456,-149.5734735
MLS Listing,,Condo/Co-op,809 Merlin Loop Unit A3,Anchorage,AK,99518,224900,3,2.0,Anchorage Municipality,1292,,1983,102,174,348,Active,,,https://www.redfin.com/AK/Anchorage/809-Merlin-Loop-99518/unit-A3/home/174141670,AKMLS,21-15199,N,Y,61.1588166,-149.8683453
MLS Listing,,Condo/Co-op,7754 Gate Creek Dr #61,Anchorage,AK,99502,399000,3,3.0,Anchorage Municipality,1464,6720,2021,102,273,225,Active,,,https://www.redfin.com/AK/Anchorage/7754-Gate-Creek-Dr-99502/unit-61/home/176519028,AKMLS,21-15177,N,Y,61.1514324,-149.9922558
MLS Listing,,Condo/Co-op,7756 Gate Creek Dr #62,Anchorage,AK,99502,399000,3,2.0,Anchorage Municipality,1464,6720,2021,102,273,225,Active,,,https://www.redfin.com/AK/Anchorage/7756-Gate-Creek-Dr-99502/unit-62/home/176519027,AKMLS,21-15178,N,Y,61.1514226,-149.9922745
MLS Listing,,Vacant Land,6641 Valentine Cir,Anchorage,AK,99507,115000,0,,Anchorage Municipality,,12711,,103,,,Active,,,https://www.redfin.com/AK/Anchorage/6641-Valentine-Cir-99507/home/131173814,AKMLS,21-15128,N,Y,61.1602154,-149.8440741
MLS Listing,,Condo/Co-op,3264 Montclaire Ct Unit 18D,Anchorage,AK,99503,215000,3,2.0,Anchorage Municipality,1421,,1976,103,151,412,Active,,,https://www.redfin.com/AK/Anchorage/3264-Montclaire-Ct-99503/unit-18-D/home/131034399,AKMLS,21-15127,N,Y,61.19061,-149.8953879
MLS Listing,,Single Family Residential,L10 Overlook Ests,Eagle River,AK,99577,749950,4,3.0,Anchorage Municipality,2172,67082,2021,103,345,,Active,,,https://www.redfin.com/AK/Anchorage/L10-Overlook-ESTS-99577/home/174686593,AKMLS,21-15123,N,Y,61.273807,-149.365486
MLS Listing,,Single Family Residential,L2 Jasmine Rd,Chugiak,AK,99567,549950,3,2.0,Anchorage Municipality,1713,40075,2021,104,321,,Active,,,https://www.redfin.com/AK/Anchorage/L2-Jasmine-Rd-99567/home/172211580,AKMLS,21-15076,N,Y,61.391562,-149.450147
MLS Listing,,Condo/Co-op,3225 Montpelier Ct Unit E9,Anchorage,AK,99503,198500,2,2.0,Anchorage Municipality,1253,,1976,104,158,409,Active,,,https://www.redfin.com/AK/Anchorage/3225-Montpelier-Ct-99503/unit-E9/home/177094385,AKMLS,21-15074,N,Y,61.1913437,-149.8912694
MLS Listing,,Condo/Co-op,4302 Reka Dr #4302,Anchorage,AK,99508,110000,2,1.0,Anchorage Municipality,674,,1974,105,163,287,Active,,,https://www.redfin.com/AK/Anchorage/4302-Reka-Dr-99508/unit-4302/home/131515181,AKMLS,21-15034,N,Y,61.2045091,-149.7999965
MLS Listing,,Multi-Family (2-4 Unit),1425 W 40th Ave,Anchorage,AK,99503,935000,13,10.0,Anchorage Municipality,7128,9000,1971,106,131,,Active,,,https://www.redfin.com/AK/Anchorage/1425-W-40th-Ave-99503/home/131156090,AKMLS,21-14998,N,Y,61.184665,-149.9100389
MLS Listing,,Single Family Residential,15639 Carl St,Anchorage,AK,99516,695000,3,2.0,Anchorage Municipality,2410,885574,1979,106,288,,Active,,,https://www.redfin.com/AK/Anchorage/15639-Carl-St-99516/home/131336168,AKMLS,21-14997,N,Y,61.0788979,-149.732568
MLS Listing,,Condo/Co-op,9645 Independence Dr Unit D-106,Anchorage,AK,99507,100000,1,1.0,Anchorage Municipality,501,,1983,106,200,332,Active,,,https://www.redfin.com/AK/Anchorage/9645-Independence-Dr-99507/unit-D106/home/131197264,AKMLS,21-14979,N,Y,61.1336874,-149.8415536
MLS Listing,,Condo/Co-op,1441 E 17th Ave #9,Anchorage,AK,99501,121000,1,2.0,Anchorage Municipality,809,,1983,106,150,420,Active,,,https://www.redfin.com/AK/Anchorage/1441-E-17th-Ave-99501/unit-9/home/131084071,AKMLS,21-14959,N,Y,61.2052891,-149.8550897
MLS Listing,,Single Family Residential,1055 E 17th Ave,Anchorage,AK,99501,205500,3,2.0,Anchorage Municipality,1320,2501,1977,106,156,,Active,,,https://www.redfin.com/AK/Anchorage/1055-E-17th-Ave-99501/home/131014392,AKMLS,21-14958,N,Y,61.2051722,-149.8622704
MLS Listing,,Vacant Land,6711 Askeland Dr,Anchorage,AK,99507,115000,0,,Anchorage Municipality,,8225,,109,,,Active,,,https://www.redfin.com/AK/Anchorage/6711-Askeland-Dr-99507/home/131244752,AKMLS,21-14909,N,Y,61.1598455,-149.8459023
MLS Listing,,Condo/Co-op,7808 Lumbis Ave #3,Anchorage,AK,99518,175000,2,2.0,Anchorage Municipality,1200,,1979,109,146,250,Active,,,https://www.redfin.com/AK/Anchorage/7808-Lumbis-Ave-99518/unit-3/home/131483337,AKMLS,21-14901,N,Y,61.1499463,-149.8679105
MLS Listing,,Single Family Residential,3500 Robin St,Anchorage,AK,99504,425000,5,2.0,Anchorage Municipality,2050,15120,1983,112,207,,Active,,,https://www.redfin.com/AK/Anchorage/3500-Robin-St-99504/home/131587212,AKMLS,21-14717,N,Y,61.1889532,-149.7397974
MLS Listing,,Vacant Land,000 Pickett St,Anchorage,AK,99516,750000,0,,Anchorage Municipality,,643500,,113,,,Active,,,https://www.redfin.com/AK/Anchorage/Pickett-St-99516/home/172188063,AKMLS,21-14671,N,Y,61.09091,-149.772876
MLS Listing,,Single Family Residential,3215 Lois Dr,Anchorage,AK,99517,150000,2,1.0,Anchorage Municipality,1140,6250,1951,113,132,,Active,,,https://www.redfin.com/AK/Anchorage/3215-Lois-Dr-99517/home/131150243,AKMLS,21-14668,N,Y,61.1905663,-149.9200449
MLS Listing,,Condo/Co-op,6331 Whispering Loop Unit 23B,Anchorage,AK,99504,320000,3,4.0,Anchorage Municipality,1543,,2006,113,207,173,Active,,,https://www.redfin.com/AK/Anchorage/6331-Whispering-Loop-99504/unit-23B/home/131283986,AKMLS,21-14665,N,Y,61.2217618,-149.76205
MLS Listing,,Vacant Land,L4 B5 Panther Dr,Eagle River,AK,99577,55000,0,,Anchorage Municipality,,31506,,113,,,Active,,,https://www.redfin.com/AK/Anchorage/L4-B5-Panther-Dr-99577/home/172197663,AKMLS,21-14656,N,Y,61.260541,-149.315624
MLS Listing,,Condo/Co-op,1200 I St #206,Anchorage,AK,99501,289000,2,1.0,Anchorage Municipality,1025,,1982,113,282,505,Active,,,https://www.redfin.com/AK/Anchorage/1200-I-St-99501/unit-206/home/131313052,AKMLS,21-14629,N,Y,61.2099453,-149.9007438
MLS Listing,,Condo/Co-op,141 Matthew Paul Way #50,Anchorage,AK,99504,215000,3,2.0,Anchorage Municipality,1282,,2010,115,168,290,Active,,,https://www.redfin.com/AK/Anchorage/141-Matthew-Paul-Way-99504/unit-50/home/131351745,AKMLS,21-14597,N,Y,61.223263,-149.762549
MLS Listing,,Single Family Residential,L6 B2 Potter Valley Rd,Anchorage,AK,99516,1222500,4,4.0,Anchorage Municipality,4722,171626,2021,116,259,46,Active,,,https://www.redfin.com/AK/Anchorage/L6-B2-Potter-Valley-Rd-99516/home/172197018,AKMLS,21-14549,N,Y,61.045429,-149.76899
MLS Listing,,Vacant Land,L12 Jasmine,Chugiak,AK,99567,124950,0,,Anchorage Municipality,,42253,,116,,,Active,,,https://www.redfin.com/AK/Anchorage/L12-Jasmine-Rd-99567/home/172208013,AKMLS,21-14545,N,Y,61.388751,-149.450559
MLS Listing,,Vacant Land,L10 Jasmine,Chugiak,AK,99567,139950,0,,Anchorage Municipality,,40075,,116,,,Active,,,https://www.redfin.com/AK/Anchorage/L10-Jasmine-Rd-99567/home/176357389,AKMLS,21-14541,N,Y,61.3912512,-149.4501639
MLS Listing,,Vacant Land,L11 Jasmine,Chugiak,AK,99567,139950,0,,Anchorage Municipality,,40075,,116,,,Active,,,https://www.redfin.com/AK/Anchorage/L11-Jasmine-Rd-99567/home/172231431,AKMLS,21-14543,N,Y,61.3912512,-149.4501639
MLS Listing,,Vacant Land,L7 Jasmine,Chugiak,AK,99567,124950,0,,Anchorage Municipality,,40510,,116,,,Active,,,https://www.redfin.com/AK/Anchorage/L7-Jasmine-Rd-99567/home/172211180,AKMLS,21-14539,N,Y,61.3912512,-149.4501639
MLS Listing,,Vacant Land,L6 Jasmine,Chugiak,AK,99567,124950,0,,Anchorage Municipality,,40510,,116,,,Active,,,https://www.redfin.com/AK/Anchorage/L6-Jasmine-Rd-99567/home/176357294,AKMLS,21-14538,N,Y,61.3912512,-149.4501639
MLS Listing,,Vacant Land,L5 Jasmine,Chugiak,AK,99567,124950,0,,Anchorage Municipality,,41382,,116,,,Active,,,https://www.redfin.com/AK/Anchorage/L5-Jasmine-Rd-99567/home/172211183,AKMLS,21-14537,N,Y,61.389291,-149.452551
MLS Listing,,Vacant Land,L4 Jasmine,Chugiak,AK,99567,124950,0,,Anchorage Municipality,,40075,,116,,,Active,,,https://www.redfin.com/AK/Anchorage/L4-Jasmine-Rd-99567/home/172210385,AKMLS,21-14535,N,Y,61.3912512,-149.4501639
MLS Listing,,Vacant Land,L3 Jasmine,Chugiak,AK,99567,124950,0,,Anchorage Municipality,,40075,,116,,,Active,,,https://www.redfin.com/AK/Anchorage/L3-Jasmine-Rd-99567/home/176356899,AKMLS,21-14532,N,Y,61.3912512,-149.4501639
MLS Listing,,Single Family Residential,L3 Ridgecrest Dr,Anchorage,AK,99516,837500,4,3.0,Anchorage Municipality,2500,45206,2021,116,335,,Active,,,https://www.redfin.com/AK/Anchorage/L3-Ridgecrest-Dr-99516/home/176369150,AKMLS,21-14526,N,Y,61.1206333,-149.7594053
MLS Listing,,Single Family Residential,6050 Jan Marie Dr,Anchorage,AK,99502,639000,3,2.0,Anchorage Municipality,1788,8400,2021,116,357,32,Active,,,https://www.redfin.com/AK/ANCHORAGE/6050-JAN-MARIE-DR-99502/home/175779363,AKMLS,21-14515,N,Y,61.140179,-149.992049
MLS Listing,,Vacant Land,L3 B2 Sandpiper Dr,Anchorage,AK,99516,180000,0,,Anchorage Municipality,,43136,,117,,,Active,,,https://www.redfin.com/AK/Anchorage/L3-B2-Sandpiper-Dr-99516/home/172184063,AKMLS,21-14487,N,Y,61.075665,-149.752907
MLS Listing,,Vacant Land,L8 B3 Sandpiper Dr,Anchorage,AK,99516,185000,0,,Anchorage Municipality,,40085,,117,,,Active,,,https://www.redfin.com/AK/Anchorage/L8-B3-Sandpiper-Dr-99516/home/172184067,AKMLS,21-14488,N,Y,61.074336,-149.746255
MLS Listing,,Vacant Land,L5 B1 Sandpiper Dr,Anchorage,AK,99516,185000,0,,Anchorage Municipality,,40082,,117,,,Active,,,https://www.redfin.com/AK/Anchorage/L5-B1-Sandpiper-Dr-99516/home/172142123,AKMLS,21-14486,N,Y,61.074336,-149.749388
MLS Listing,,Vacant Land,5050 Crow Creek Rd,Girdwood,AK,99587,99999,0,,Anchorage Municipality,,33013,,117,,,Active,,,https://www.redfin.com/AK/ANCHORAGE/5050-CROW-CREEK-RD-99507/home/166632777,AKMLS,21-14466,N,Y,61.018965,-149.092621
MLS Listing,,Single Family Residential,1409 Nunaka Dr,Anchorage,AK,99504,216500,2,1.0,Anchorage Municipality,720,6768,1954,117,301,,Active,,,https://www.redfin.com/AK/Anchorage/1409-Nunaka-Dr-99504/home/131560620,AKMLS,21-14461,N,Y,61.2080161,-149.769717
MLS Listing,,Vacant Land,10381 Nigh Rd,Anchorage,AK,99515,899000,0,,Anchorage Municipality,,41573,,117,,,Active,,,https://www.redfin.com/AK/Anchorage/10381-Nigh-Rd-99515/home/131303205,AKMLS,21-14457,N,Y,61.1270189,-149.8672395
MLS Listing,,Vacant Land,L14 B6 Teal Loop,Chugiak,AK,99567,70000,0,,Anchorage Municipality,,55800,,118,,,Active,,,https://www.redfin.com/AK/Anchorage/L14-B6-Teal-Loop-99567/home/172190997,AKMLS,21-14411,N,Y,61.441105,-149.36507
MLS Listing,,Multi-Family (2-4 Unit),2906 W 32nd Ave,Anchorage,AK,99517,449900,4,4.0,Anchorage Municipality,2592,7063,1970,118,174,,Active,,,https://www.redfin.com/AK/Anchorage/2906-W-32nd-Ave-99517/home/131666749,AKMLS,21-14406,N,Y,61.1914683,-149.9381525
MLS Listing,,Multi-Family (2-4 Unit),1414 Denali St,Anchorage,AK,99501,499000,5,5.0,Anchorage Municipality,2954,7000,2005,119,169,,Active,,,https://www.redfin.com/AK/Anchorage/1414-Denali-St-99501/home/131449486,AKMLS,21-14360,N,Y,61.2084167,-149.8775195
MLS Listing,,Single Family Residential,425 N Bunn St,Anchorage,AK,99508,140000,2,1.0,Anchorage Municipality,894,6250,1956,120,157,,Active,,,https://www.redfin.com/AK/Anchorage/425-N-Bunn-St-99508/home/131317317,AKMLS,21-14334,N,Y,61.2273508,-149.7986911
MLS Listing,,Condo/Co-op,510 L St #803,Anchorage,AK,99501,1125000,2,3.0,Anchorage Municipality,2146,,1976,123,524,764,Active,,,https://www.redfin.com/AK/Anchorage/510-L-St-99501/unit-803/home/131584258,AKMLS,21-14263,N,Y,61.2171241,-149.9045556
MLS Listing,,Single Family Residential,9150 Ticia Cir,Anchorage,AK,99502,256000,3,2.0,Anchorage Municipality,1104,3170,1984,124,232,,Active,,,https://www.redfin.com/AK/Anchorage/9150-Ticia-Cir-99502/home/131683693,AKMLS,21-14203,N,Y,61.1379749,-149.9386036
MLS Listing,,Single Family Residential,525 Irwin St,Anchorage,AK,99508,140000,2,2.0,Anchorage Municipality,1400,6750,1950,124,100,,Active,,,https://www.redfin.com/AK/Anchorage/525-Irwin-St-99508/home/131115384,AKMLS,21-14185,N,Y,61.2283263,-149.8098518
MLS Listing,,Vacant Land,L1B James Holt,Anchorage,AK,99507,165000,0,,Anchorage Municipality,,14261,,124,,,Active,,,https://www.redfin.com/AK/Anchorage/L1B-James-Holt-99507/home/174618943,AKMLS,21-14176,N,Y,61.180974,-149.763851
MLS Listing,,Vacant Land,L1A James Holt,Anchorage,AK,99507,165000,0,,Anchorage Municipality,,19239,,124,,,Active,,,https://www.redfin.com/AK/Anchorage/L1A-James-Holt-99507/home/176305827,AKMLS,21-14174,N,Y,61.180922,-149.764688
MLS Listing,,Vacant Land,L6C B1 Hyatt St,Anchorage,AK,99507,130000,0,,Anchorage Municipality,,7670,,124,,,Active,,,https://www.redfin.com/AK/Anchorage/L6C-B1-Hyatt-St-99507/home/174617910,AKMLS,21-14167,N,Y,61.156855,-149.843192
MLS Listing,,Vacant Land,L6B B1 Hyatt St,Anchorage,AK,99507,130000,0,,Anchorage Municipality,,7055,,124,,,Active,,,https://www.redfin.com/AK/Anchorage/L6B-B1-Hyatt-St-99507/home/174617817,AKMLS,21-14165,N,Y,61.156673,-149.84327
MLS Listing,,Multi-Family (2-4 Unit),1024 E 12th Ave,Anchorage,AK,99501,385000,7,4.0,Anchorage Municipality,2880,7000,1959,125,134,,Active,,,https://www.redfin.com/AK/Anchorage/1024-E-12th-Ave-99501/home/131090638,AKMLS,21-14119,N,Y,61.210437,-149.863759
MLS Listing,,Multi-Family (2-4 Unit),1032 E 12th Ave,Anchorage,AK,99501,450000,10,4.0,Anchorage Municipality,3536,7000,1977,125,127,,Active,,,https://www.redfin.com/AK/Anchorage/1032-E-12th-Ave-99501/home/131091437,AKMLS,21-14120,N,Y,61.2104554,-149.8634228
MLS Listing,,Single Family Residential,7800 Lotus Dr,Anchorage,AK,99502,419900,4,3.0,Anchorage Municipality,1872,7998,1977,125,224,,Active,,,https://www.redfin.com/AK/Anchorage/7800-Lotus-Dr-99502/home/131332605,AKMLS,21-14066,N,Y,61.1497443,-149.9246264
MLS Listing,,Single Family Residential,2611 W 100th Ave,Anchorage,AK,99515,2850000,4,6.0,Anchorage Municipality,6878,34736,2007,126,414,,Active,,,https://www.redfin.com/AK/Anchorage/2611-W-100th-Ave-99515/home/131686739,AKMLS,21-14042,N,Y,61.1308485,-149.92815
MLS Listing,,Vacant Land,16074 Mountain Air Dr,Anchorage,AK,99516,195000,0,,Anchorage Municipality,,41368,,127,,,Active,,,https://www.redfin.com/AK/Anchorage/16074-Mountain-Air-Dr-99516/home/166567359,AKMLS,21-13969,N,Y,61.0756057,-149.7488401
MLS Listing,,Multi-Family (2-4 Unit),8400 Owen Cir,Anchorage,AK,99518,399900,6,3.0,Anchorage Municipality,2400,6007,1972,130,167,,Active,,,https://www.redfin.com/AK/Anchorage/8400-Owen-Cir-99502/home/131731298,AKMLS,21-13877,N,Y,61.14453,-149.9419945
MLS Listing,,Single Family Residential,27141 Roop Rd,Eagle River,AK,99577,1166000,4,2.0,Anchorage Municipality,2288,356407,1970,130,510,,Active,,,https://www.redfin.com/AK/Eagle-River/27141-Roop-Rd-99577/home/131067461,AKMLS,21-13872,N,Y,61.279377,-149.3765619
MLS Listing,,Single Family Residential,11438 Targhee Loop,Eagle River,AK,99577,224000,3,2.0,Anchorage Municipality,1484,6245,1982,130,151,,Active,,,https://www.redfin.com/AK/Eagle-River/11438-Targhee-Loop-99577/home/131225818,AKMLS,21-13848,N,Y,61.3243145,-149.5828345
MLS Listing,,Vacant Land,3200 Doris St,Anchorage,AK,99517,125000,0,,Anchorage Municipality,,7000,,130,,,Active,,,https://www.redfin.com/AK/Anchorage/3200-Doris-St-99517/home/166657312,AKMLS,21-13846,N,Y,61.191532,-149.922882
MLS Listing,,Vacant Land,3002 Northwood Dr,Anchorage,AK,99517,145000,0,,Anchorage Municipality,,8400,,131,,,Active,,,https://www.redfin.com/AK/Anchorage/3002-Northwood-Dr-99517/home/131294721,AKMLS,21-13782,N,Y,61.1931171,-149.9281597
MLS Listing,,Condo/Co-op,5569 Big Bear Way #22,Anchorage,AK,99504,419000,4,4.0,Anchorage Municipality,2142,,2018,131,196,270,Active,,,https://www.redfin.com/AK/Anchorage/5569-Big-Bear-Way-99504/unit-22/home/146475311,AKMLS,21-13769,N,Y,61.1871581,-149.7766905
MLS Listing,,Multi-Family (2-4 Unit),906 W 29th Pl,Anchorage,AK,99503,699000,17,10.0,Anchorage Municipality,3033,13998,1962,132,230,,Active,,,https://www.redfin.com/AK/Anchorage/906-W-29th-Pl-99503/home/131388698,AKMLS,21-13740,N,Y,61.193568,-149.9010244
MLS Listing,,Vacant Land,820 E 11th Ave,Anchorage,AK,99501,79000,0,,Anchorage Municipality,,7000,,132,,,Active,,,https://www.redfin.com/AK/Anchorage/820-E-11th-Ave-99501/home/172190560,AKMLS,21-13700,N,Y,61.211379,-149.868108
MLS Listing,,Vacant Land,2741 W 62nd Ave,Anchorage,AK,99502,400000,0,,Anchorage Municipality,,22000,,133,,,Active,,,https://www.redfin.com/AK/Anchorage/2741-W-62nd-Ave-99502/home/131496399,AKMLS,21-13650,N,Y,61.1648709,-149.9366576
MLS Listing,,Single Family Residential,6840 Crooked Tree Dr,Anchorage,AK,99507,950000,3,4.0,Anchorage Municipality,3479,20532,1983,136,273,45,Active,,,https://www.redfin.com/AK/Anchorage/6840-Crooked-Tree-Dr-99507/home/130985773,AKMLS,21-13547,N,Y,61.1284687,-149.7545591
MLS Listing,,Condo/Co-op,1210 E 16th Ave #04,Anchorage,AK,99501,249000,2,2.0,Anchorage Municipality,1852,,1982,136,134,536,Active,,,https://www.redfin.com/AK/Anchorage/1210-E-16th-Ave-99501/unit-4/home/131767403,AKMLS,21-13546,N,Y,61.2058541,-149.8605812
MLS Listing,,Vacant Land,4450 View Cir,Anchorage,AK,99507,138000,0,,Anchorage Municipality,,11531,,136,,,Active,,,https://www.redfin.com/AK/Anchorage/4450-View-Cir-99507/home/131788120,AKMLS,21-13536,N,Y,61.180564,-149.8179769
MLS Listing,,Single Family Residential,2143 McKenzie Dr,Anchorage,AK,99517,695000,4,3.0,Anchorage Municipality,3345,9100,1970,136,208,,Active,,,https://www.redfin.com/AK/Anchorage/2143-Mckenzie-Dr-99517/home/131862781,AKMLS,21-13500,N,Y,61.1998584,-149.9498232
MLS Listing,,Single Family Residential,3624 E 16th Ave,Anchorage,AK,99508,257000,3,2.0,Anchorage Municipality,1152,6600,1970,137,223,,Active,,,https://www.redfin.com/AK/Anchorage/3624-E-16th-Ave-99508/home/131449892,AKMLS,21-13445,N,Y,61.2058412,-149.8131759
MLS Listing,,Single Family Residential,10730 Dolly Madison Cir,Eagle River,AK,99577,610000,5,4.0,Anchorage Municipality,3159,10018,1997,138,193,,Active,,,https://www.redfin.com/AK/Eagle-River/10730-Dolly-Madison-Cir-99577/home/131520856,AKMLS,21-13417,N,Y,61.3172387,-149.5113736
MLS Listing,,Single Family Residential,2602 Eide St,Anchorage,AK,99503,400000,2,1.0,Anchorage Municipality,1188,19500,1952,138,337,,Active,,,https://www.redfin.com/AK/Anchorage/2602-Eide-St-99503/home/131884498,AKMLS,21-13389,N,Y,61.1968767,-149.8888201
MLS Listing,,Vacant Land,L4A Air Guard Rd,Anchorage,AK,99502,145000,0,,Anchorage Municipality,,7437,,138,,,Active,,,https://www.redfin.com/AK/Anchorage/L4A-Air-Guard-Rd-99502/home/176156913,AKMLS,21-13392,N,Y,61.159546,-149.966557
MLS Listing,,Vacant Land,L1 B2 Sierra Mesa,Chugiak,AK,99567,84500,0,,Anchorage Municipality,,43560,,138,,,Active,,,https://www.redfin.com/AK/Anchorage/L1-B2-Sierra-Mesa-Cir-99567/home/172185857,AKMLS,21-13358,N,Y,61.399671,-149.416319
MLS Listing,,Vacant Land,L1 B6 Meadow Ridge Ct,Chugiak,AK,99567,32400,0,,Anchorage Municipality,,30668,,139,,17,Active,,,https://www.redfin.com/AK/Anchorage/L1-B6-Meadow-Ridge-Ct-99567/home/172231267,AKMLS,21-13291,N,Y,61.412446,-149.417764
MLS Listing,,Condo/Co-op,3591 Lynn Dr #1,Anchorage,AK,99508,139999,2,1.0,Anchorage Municipality,853,,1977,140,164,450,Active,,,https://www.redfin.com/AK/Anchorage/3591-Lynn-Dr-99508/unit-1/home/131106397,AKMLS,21-13282,N,Y,61.1878493,-149.7793414
MLS Listing,,Single Family Residential,9520 Grey Owl Way,Eagle River,AK,99577,530000,3,3.0,Anchorage Municipality,1674,6034,2021,140,317,,Active,,,https://www.redfin.com/AK/Anchorage/9520-Grey-Owl-WAY-99577/home/176139393,AKMLS,21-13263,N,Y,61.3293186,-149.56805
MLS Listing,,Single Family Residential,22939 Eagle Glacier Loop,Eagle River,AK,99577,532000,3,3.0,Anchorage Municipality,2552,43560,1984,140,208,,Active,,,https://www.redfin.com/AK/Eagle-River/22939-Eagle-Glacier-Loop-99577/home/131921724,AKMLS,21-13214,N,Y,61.3018385,-149.4534103
MLS Listing,,Condo/Co-op,3962 Reka Dr Unit C2,Anchorage,AK,99508,133500,2,2.0,Anchorage Municipality,1136,,1971,142,118,329,Active,,,https://www.redfin.com/AK/Anchorage/3962-Reka-Dr-99508/unit-C2/home/177154113,AKMLS,21-13137,N,Y,61.2039012,-149.8056869
MLS Listing,,Vacant Land,17324 Juanita,Eagle River,AK,99577,89000,0,,Anchorage Municipality,,8216,,143,,,Active,,,https://www.redfin.com/AK/Eagle-River/17324-S-Juanita-Loop-99577/home/172232110,AKMLS,21-13119,N,Y,61.3357173,-149.5588019
MLS Listing,,Condo/Co-op,1200 I St #813,Anchorage,AK,99501,880000,2,2.0,Anchorage Municipality,2066,,1982,144,426,1072,Active,,,https://www.redfin.com/AK/Anchorage/1200-I-St-99501/unit-813/home/131565538,AKMLS,21-13100,N,Y,61.2099453,-149.9007438
MLS Listing,,Condo/Co-op,1113 W Fireweed Ln #402,Anchorage,AK,99503,140000,1,1.0,Anchorage Municipality,651,,1977,144,215,201,Active,,,https://www.redfin.com/AK/Anchorage/1113-W-Fireweed-Ln-99503/unit-402/home/131785992,AKMLS,21-13038,N,Y,61.1991505,-149.9047984
MLS Listing,,Condo/Co-op,8601 Molanary Dr #2,Anchorage,AK,99502,115500,2,1.0,Anchorage Municipality,815,,1978,144,142,310,Active,,,https://www.redfin.com/AK/Anchorage/8601-Molanary-Dr-99502/unit-2/home/131036770,AKMLS,21-13032,N,Y,61.1426762,-149.9497469
MLS Listing,,Single Family Residential,21231 Scenic Dr,Chugiak,AK,99567,175000,0,,Anchorage Municipality,1060,49570,1983,145,165,,Active,,,https://www.redfin.com/AK/Chugiak/21231-Scenic-Dr-99567/home/131599836,AKMLS,21-12995,N,Y,61.4123338,-149.4867649
MLS Listing,,Single Family Residential,21923 Aurora Borealis Rd,Chugiak,AK,99567,127500,4,2.0,Anchorage Municipality,1704,108900,1965,145,75,,Active,,,https://www.redfin.com/AK/Chugiak/21923-Aurora-Borealis-Rd-99567/home/131844300,AKMLS,21-12974,N,Y,61.407789,-149.4734983
MLS Listing,,Single Family Residential,13200 Old Seward Hwy,Anchorage,AK,99515,330000,3,3.0,Anchorage Municipality,2210,25000,1946,146,149,,Active,,,https://www.redfin.com/AK/Anchorage/13200-Old-Seward-Hwy-99515/home/131912119,AKMLS,21-12892,N,Y,61.1011598,-149.8547727
MLS Listing,,Single Family Residential,1601 Elmendorf Dr,Anchorage,AK,99504,230000,2,1.0,Anchorage Municipality,728,5500,1954,147,316,,Active,,,https://www.redfin.com/AK/Anchorage/1601-Elmendorf-Dr-99504/home/131743575,AKMLS,21-12866,N,Y,61.2061452,-149.7688753
MLS Listing,,Vacant Land,L9A B1V Rabbit Creek View & Hts,Anchorage,AK,99516,60000,0,,Anchorage Municipality,,37484,,147,,,Active,,,https://www.redfin.com/AK/Anchorage/L9A-B1V-Rabbit-Creek-Rd-99516/home/176070835,AKMLS,21-12834,N,Y,61.079281,-149.727182
MLS Listing,,Vacant Land,L10A B1V Rabbit Creek View & Hts,Anchorage,AK,99516,60000,0,,Anchorage Municipality,,37301,,147,,,Active,,,https://www.redfin.com/AK/Anchorage/L10A-B1V-View-Heights-Way-99516/home/176070766,AKMLS,21-12830,N,Y,61.079349,-149.726663
MLS Listing,,Vacant Land,L29A B4 Mountain Plover Cir,Anchorage,AK,99516,220000,0,,Anchorage Municipality,,10361,,147,,72,Active,,,https://www.redfin.com/AK/Anchorage/L29A-B4-Mountain-Plover-Cir-99516/home/176067195,AKMLS,21-12803,N,Y,61.0518691,-149.7869203
MLS Listing,,Mobile/Manufactured Home,4200 E 4th Ave,Anchorage,AK,99508,45000,3,1.0,Anchorage Municipality,1260,,1962,148,36,,Active,,,https://www.redfin.com/AK/Anchorage/4200-E-4th-Ave-99508/home/165866445,AKMLS,21-12798,N,Y,61.21787,-149.8026273
MLS Listing,,Vacant Land,327 W 5th Ave,Anchorage,AK,99501,552000,0,,Anchorage Municipality,,6500,,148,,,Active,,,https://www.redfin.com/AK/Anchorage/327-W-5th-Ave-99501/home/166641215,AKMLS,21-12778,N,Y,61.2176651,-149.8886199
MLS Listing,,Single Family Residential,21119 Country View Dr,Chugiak,AK,99567,468000,3,2.0,Anchorage Municipality,2772,40574,1976,148,169,,Active,,,https://www.redfin.com/AK/Chugiak/21119-Country-View-Dr-99567/home/131651440,AKMLS,21-12755,N,Y,61.4109988,-149.4134513
MLS Listing,,Multi-Family (2-4 Unit),4621 Cordova St,Anchorage,AK,99503,515000,7,4.0,Anchorage Municipality,3072,8000,1969,148,168,,Active,,,https://www.redfin.com/AK/Anchorage/4621-Cordova-St-99503/home/131147359,AKMLS,21-12738,N,Y,61.1786475,-149.8785561
MLS Listing,,Condo/Co-op,9201 Arlene St Unit G9,Anchorage,AK,99502,131000,2,1.0,Anchorage Municipality,837,,1981,150,157,265,Active,,,https://www.redfin.com/AK/Anchorage/9201-Arlene-St-99502/unit-G9/home/177013268,AKMLS,21-12690,N,Y,61.1371303,-149.9287952
MLS Listing,,Multi-Family (2-4 Unit),6601 Mink Ave,Anchorage,AK,99504,410000,5,3.0,Anchorage Municipality,2236,10650,1970,151,183,,Active,,,https://www.redfin.com/AK/Anchorage/6601-Mink-Ave-99504/home/131870883,AKMLS,21-12672,N,Y,61.2093283,-149.7576293
MLS Listing,,Condo/Co-op,4454 Denali St Unit 1B,Anchorage,AK,99503,219000,4,2.0,Anchorage Municipality,1635,,2007,151,134,253,Active,,,https://www.redfin.com/AK/Anchorage/4454-Denali-St-99503/unit-1B/home/131700002,AKMLS,21-12640,N,Y,61.1801187,-149.877369
MLS Listing,,Vacant Land,L10 Mountainside Village Dr,Anchorage,AK,99516,250000,0,,Anchorage Municipality,,63691,,154,,,Active,,,https://www.redfin.com/AK/Anchorage/L10-Mountainside-Village-Dr-99516/home/175936092,AKMLS,21-12377,N,Y,61.061829,-149.750545
MLS Listing,,Vacant Land,L18A B10H Harwood Cir,Anchorage,AK,99516,55700,0,,Anchorage Municipality,,26400,,157,,,Active,,,https://www.redfin.com/AK/Anchorage/L18A-B10H-Harwood-Cir-99516/home/175928010,AKMLS,21-12267,N,Y,61.066831,-149.727494
MLS Listing,,Vacant Land,L17A B10H Harwood Cir,Anchorage,AK,99516,46000,0,,Anchorage Municipality,,17237,,157,,,Active,,,https://www.redfin.com/AK/Anchorage/L17A-B10H-Harwood-Cir-99516/home/175928006,AKMLS,21-12266,N,Y,61.066845,-149.728049
MLS Listing,,Vacant Land,L16A B10H Harwood Cir,Anchorage,AK,99516,68700,0,,Anchorage Municipality,,25737,,157,,,Active,,,https://www.redfin.com/AK/Anchorage/L16A-B10H-Harwood-Cir-99516/home/175928005,AKMLS,21-12265,N,Y,61.066728,-149.728569
MLS Listing,,Vacant Land,L15A B10H Harwood Cir,Anchorage,AK,99516,69000,0,,Anchorage Municipality,,25855,,157,,,Active,,,https://www.redfin.com/AK/Anchorage/L15A-B10H-Harwood-Cir-99516/home/175928001,AKMLS,21-12264,N,Y,61.066414,-149.728725
MLS Listing,,Vacant Land,L14A B10H Harwood Cir,Anchorage,AK,99516,85200,0,,Anchorage Municipality,,31900,,157,,,Active,,,https://www.redfin.com/AK/Anchorage/L14A-B10H-Harwood-Cir-99516/home/175927996,AKMLS,21-12262,N,Y,61.06617,-149.728167
MLS Listing,,Vacant Land,L13A B10H Harwood Cir,Anchorage,AK,99516,63200,0,,Anchorage Municipality,,23681,,157,,,Active,,,https://www.redfin.com/AK/Anchorage/L13A-B10H-Harwood-Cir-99516/home/175927991,AKMLS,21-12260,N,Y,61.066257,-149.727505
MLS Listing,,Condo/Co-op,2100 Minerva Way Unit 21A,Anchorage,AK,99515,89500,1,1.0,Anchorage Municipality,605,42846,1981,158,148,258,Active,,,https://www.redfin.com/AK/Anchorage/2100-Minerva-Way-99515/unit-21A/home/172174520,AKMLS,21-12224,N,Y,61.1344266,-149.9197379
MLS Listing,,Single Family Residential,5369 Sandhill Loop,Anchorage,AK,99502,754900,5,4.0,Anchorage Municipality,3171,7475,2021,158,238,47,Active,,,https://www.redfin.com/AK/ANCHORAGE/5369-SANDHILL-LOOP-99502/home/175779268,AKMLS,21-12197,N,Y,61.148583,-149.980921
MLS Listing,,Vacant Land,Mile 8 Hiland Dr,Eagle River,AK,99577,115000,0,,Anchorage Municipality,,202025,,159,,,Active,,,https://www.redfin.com/AK/Anchorage/Mile-8-Hiland-Rd-99577/home/175896646,AKMLS,21-12084,N,Y,61.2901848,-149.5312215
MLS Listing,,Vacant Land,1785 Evangeline Ln,Anchorage,AK,99517,289000,0,,Anchorage Municipality,,7391,,161,,378,Active,,,https://www.redfin.com/AK/Anchorage/1785-Evangeline-Ln-99517/unit-16/home/166633015,AKMLS,21-11985,N,Y,61.2044144,-149.9296853
MLS Listing,,Vacant Land,L63 Riverton Ave,Anchorage,AK,99516,184000,0,,Anchorage Municipality,,108900,,161,,,Active,,,https://www.redfin.com/AK/Anchorage/L63-Elmore-Rd-99516/home/172182044,AKMLS,21-11971,N,Y,61.090546,-149.806998
MLS Listing,,Vacant Land,L18 B6 Bruin Park,Anchorage,AK,99516,130000,0,,Anchorage Municipality,,9940,,162,,,Active,,,https://www.redfin.com/AK/Anchorage/L18-B6-Bruin-PARK-99516/home/175852334,AKMLS,21-11859,N,Y,61.1176,-149.835128
MLS Listing,,Vacant Land,3731 W 73rd Ave,Anchorage,AK,99502,435000,0,,Anchorage Municipality,,75225,,163,,,Active,,,https://www.redfin.com/AK/Anchorage/3731-W-73rd-Ave-99502/home/166484620,AKMLS,21-11843,N,Y,61.155147,-149.94957
MLS Listing,,Single Family Residential,5432 Sandhill Loop,Anchorage,AK,99502,715000,4,3.0,Anchorage Municipality,2329,8478,2021,165,307,47,Active,,,https://www.redfin.com/AK/Anchorage/5432-Sandhill-LOOP-99502/home/175830148,AKMLS,21-11744,N,Y,61.149467,-149.979736
MLS Listing,,Vacant Land,2021 E 75th Ave,Anchorage,AK,99507,250000,0,,Anchorage Municipality,,10000,,166,,,Active,,,https://www.redfin.com/AK/Anchorage/2021-E-75th-Ave-99507/home/166648638,AKMLS,21-11713,N,Y,61.153055,-149.8442989
MLS Listing,,Vacant Land,L12 B3 Snow Bear Dr,Anchorage,AK,99516,149000,0,,Anchorage Municipality,,77162,,166,,25,Active,,,https://www.redfin.com/AK/Anchorage/L12-B3-Snow-Bear-Dr-99516/home/172204388,AKMLS,21-11692,N,Y,61.075196,-149.693128
MLS Listing,,Condo/Co-op,3081 Lois Dr #812,Anchorage,AK,99517,128000,2,1.0,Anchorage Municipality,742,,1974,166,173,351,Active,,,https://www.redfin.com/AK/Anchorage/3081-Lois-Dr-99517/unit-812/home/131144973,AKMLS,21-11690,N,Y,61.1931869,-149.9163464
MLS Listing,,Single Family Residential,10270 Tartan Cir,Anchorage,AK,99507,250000,2,3.0,Anchorage Municipality,1021,4238,1983,166,245,19,Active,,,https://www.redfin.com/AK/Anchorage/10270-Tartan-Cir-99507/home/131917128,AKMLS,21-11661,N,Y,61.1276984,-149.8417049
MLS Listing,,Multi-Family (2-4 Unit),900 W 25th Ave,Anchorage,AK,99503,375000,3,2.0,Anchorage Municipality,2242,15732,1955,168,167,,Active,,,https://www.redfin.com/AK/Anchorage/900-W-25th-Ave-99503/home/131477120,AKMLS,21-11516,N,Y,61.1977579,-149.9000334
MLS Listing,,Single Family Residential,7236 Bern St,Anchorage,AK,99507,594900,4,3.0,Anchorage Municipality,3927,8450,2016,168,151,,Active,,,https://www.redfin.com/AK/Anchorage/7236-Bern-St-99507/home/132659521,AKMLS,21-11498,N,Y,61.1548686,-149.8403527
MLS Listing,,Single Family Residential,20200 New England Dr,Eagle River,AK,99577,549000,5,4.0,Anchorage Municipality,3242,9189,1991,169,169,,Active,,,https://www.redfin.com/AK/Eagle-River/20200-New-England-Dr-99577/home/131936774,AKMLS,21-11464,N,Y,61.3163064,-149.5059824
MLS Listing,,Vacant Land,810 E 10th Ave,Anchorage,AK,99501,110000,0,,Anchorage Municipality,,7000,,169,,,Active,,,https://www.redfin.com/AK/Anchorage/810-E-10th-Ave-99501/home/131480944,AKMLS,21-11454,N,Y,61.2124118,-149.8683745
MLS Listing,,Vacant Land,1701 E 36th Ave,Anchorage,AK,99508,150000,0,,Anchorage Municipality,,28749,,169,,,Active,,,https://www.redfin.com/AK/Anchorage/1701-E-36th-Ave-99508/home/172175618,AKMLS,21-11445,N,Y,61.1884283,-149.8501824
MLS Listing,,Vacant Land,311 W 123rd Ave,Anchorage,AK,99515,165000,0,,Anchorage Municipality,,10171,,171,,,Active,,,https://www.redfin.com/AK/Anchorage/311-W-123rd-Ave-99515/home/131903553,AKMLS,21-11370,N,Y,61.1094957,-149.8852889
MLS Listing,,Vacant Land,L104 Sunset Blvd,Chugiak,AK,99567,75000,0,,Anchorage Municipality,,108900,,174,,,Active,,,https://www.redfin.com/AK/Anchorage/L104-Sunset-Blvd-99567/home/172195712,AKMLS,21-11175,N,Y,61.413656,-149.483061
MLS Listing,,Condo/Co-op,2046 Eastridge Dr,Anchorage,AK,99501,259000,2,3.0,Anchorage Municipality,1426,,1974,174,182,286,Active,,,https://www.redfin.com/AK/Anchorage/2046-Eastridge-Dr-99501/unit-16/home/131031821,AKMLS,21-11116,N,Y,61.2018464,-149.8421599
MLS Listing,,Vacant Land,TR 3 Boettcher,Anchorage,AK,99517,3995000,0,,Anchorage Municipality,,434009,,175,,,Active,,,https://www.redfin.com/AK/Anchorage/Tr-3-Northwood-Dr-99517/home/172143746,AKMLS,21-11036,N,Y,61.180189,-149.92864
MLS Listing,,Condo/Co-op,4640 Reka Dr Unit E11,Anchorage,AK,99508,90000,2,2.0,Anchorage Municipality,926,,1978,175,97,382,Active,,,https://www.redfin.com/AK/Anchorage/4640-Reka-Dr-99508/unit-E11/home/131093991,AKMLS,21-11002,N,Y,61.2029849,-149.7959047
MLS Listing,,Multi-Family (2-4 Unit),610 W 27th Ave,Anchorage,AK,99503,265000,3,2.0,Anchorage Municipality,1305,6944,1952,176,203,,Active,,,https://www.redfin.com/AK/Anchorage/610-W-27th-Ave-99503/home/131485942,AKMLS,21-10990,N,Y,61.1959597,-149.8957736
MLS Listing,,Single Family Residential,6817 Cape Lisburne Loop,Anchorage,AK,99504,260000,2,2.0,Anchorage Municipality,1268,4239,1984,178,205,,Active,,,https://www.redfin.com/AK/Anchorage/6817-Cape-Lisburne-Loop-99504/home/131526270,AKMLS,21-10887,N,Y,61.1914966,-149.7529905
MLS Listing,,Single Family Residential,11315 Totem Rd,Anchorage,AK,99516,1175000,3,3.0,Anchorage Municipality,3716,109672,1992,179,316,,Active,,,https://www.redfin.com/AK/Anchorage/11315-Totem-Rd-99516/home/131350044,AKMLS,21-10849,N,Y,61.1182263,-149.7804738
MLS Listing,,Single Family Residential,6515 Mulberry Dr,Anchorage,AK,99502,260000,2,1.0,Anchorage Municipality,960,9900,1962,179,271,,Active,,,https://www.redfin.com/AK/Anchorage/6515-Mulberry-Dr-99502/home/131881504,AKMLS,21-10780,N,Y,61.1616631,-149.937745
MLS Listing,,Condo/Co-op,1170 Denali St #432,Anchorage,AK,99501,115000,1,1.0,Anchorage Municipality,649,,1983,179,177,350,Active,,,https://www.redfin.com/AK/Anchorage/1170-Denali-St-99501/unit-432/home/177139483,AKMLS,21-10776,N,Y,61.2109373,-149.8776288
MLS Listing,,Vacant Land,2629 E 88th Ave,Anchorage,AK,99507,799900,0,,Anchorage Municipality,,64321,,180,,,Active,,,https://www.redfin.com/AK/Anchorage/2629-E-88th-Ave-99507/home/131181929,AKMLS,21-10703,N,Y,61.141526,-149.832533
MLS Listing,,Condo/Co-op,6631 Weimer Dr Unit B7,Anchorage,AK,99502,108000,1,1.0,Anchorage Municipality,721,,1976,180,150,347,Active,,,https://www.redfin.com/AK/Anchorage/6631-Weimer-Dr-99502/unit-B-7/home/131296947,AKMLS,21-10699,N,Y,61.1600758,-149.9488562
MLS Listing,,Vacant Land,16730 Mercy Dr,Eagle River,AK,99577,125000,0,,Anchorage Municipality,,10275,,180,,,Active,,,https://www.redfin.com/AK/Eagle-River/16730-Mercy-Dr-99577/home/166176809,AKMLS,21-10690,N,Y,61.337133,-149.5698219
MLS Listing,,Condo/Co-op,600 W 47th Ave Unit 600B,Anchorage,AK,99503,164900,2,2.0,Anchorage Municipality,1058,,1982,182,156,240,Active,,,https://www.redfin.com/AK/Anchorage/600-W-47th-Ave-99503/unit-600B/home/131130129,AKMLS,21-10560,N,Y,61.1775921,-149.894247
MLS Listing,,Vacant Land,1033 E 13th Ave,Anchorage,AK,99501,110000,0,,Anchorage Municipality,,7000,,185,,,Active,,,https://www.redfin.com/AK/Anchorage/1033-E-13th-Ave-99501/home/166457598,AKMLS,21-10442,N,Y,61.209955,-149.863454
MLS Listing,,Vacant Land,L4 Birchwood Loop Rd,Chugiak,AK,99567,249900,0,,Anchorage Municipality,,156278,,185,,,Active,,,https://www.redfin.com/AK/Anchorage/L4-Birchwood-Loop-Rd-99567/home/172150519,AKMLS,21-10439,N,Y,61.41271,-149.495366
MLS Listing,,Condo/Co-op,7110 Ambler Ln #9,Anchorage,AK,99504,166500,2,2.0,Anchorage Municipality,745,,2003,187,223,335,Active,,,https://www.redfin.com/AK/Anchorage/7110-Ambler-Ln-99504/unit-9/home/131538406,AKMLS,21-10270,N,Y,61.181094,-149.747272
MLS Listing,,Vacant Land,L3 No Rd,Anchorage,AK,99516,440000,0,,Anchorage Municipality,,1399200,,187,,,Active,,,https://www.redfin.com/AK/Anchorage/L3-No-RD-99516/home/173743240,AKMLS,21-10231,N,Y,61.0661835,-149.6235057
MLS Listing,,Multi-Family (2-4 Unit),7060 Cranberry St,Anchorage,AK,99502,399900,6,4.0,Anchorage Municipality,2730,8996,1974,188,146,,Active,,,https://www.redfin.com/AK/Anchorage/7060-Cranberry-St-99502/home/131036494,AKMLS,21-10181,N,Y,61.1563406,-149.9373896
MLS Listing,,Vacant Land,L1  B2 Snow Bear Dr,Anchorage,AK,99516,99500,0,,Anchorage Municipality,,56548,,189,,25,Active,,,https://www.redfin.com/AK/Anchorage/L1-B2-Snow-Bear-Dr-99516/home/172179469,AKMLS,21-10119,N,Y,61.072794,-149.690831
MLS Listing,,Single Family Residential,3240 Skipper St,Anchorage,AK,99504,335000,3,1.0,Anchorage Municipality,1068,9000,1982,189,314,,Active,,,https://www.redfin.com/AK/Anchorage/3240-Skipper-St-99504/home/131141420,AKMLS,21-10118,N,Y,61.191174,-149.7299827
MLS Listing,,Vacant Land,L19 E 73rd Ave,Anchorage,AK,99507,100000,0,,Anchorage Municipality,,12090,,190,,,Active,,,https://www.redfin.com/AK/Anchorage/L19-E-73rd-Ave-99507/home/172211253,AKMLS,21-10086,N,Y,61.154778,-149.846873
